"title","street","city","state","postal_code","phone","email","website","lat","lng"
"ARQ Enterprises Inc. Tile & Stone Resources","12740 Danielson Ct. Ste. D","Poway","CA","92064","1-858-486-1212","","https://www.hydroblok.com/find-a-dealer/arq-enterprises-inc-tile-stone-resources/","32.941460","-117.0468914"
"Daltile Bend","545 SE Bridgeford Blvd.","Bend","OR","97702","541-317-9301","","https://www.hydroblok.com/find-a-dealer/daltile-bend/","44.045376","-121.2904147"
"Daltile Eugene","1471 Railroad Blvd. Unit # 1","Eugene","OR","97402","541-686-0217","","https://www.hydroblok.com/find-a-dealer/daltile-eugene/","44.062730","-123.1159002"
"Daltile Everett","2525 West Casino Rd. Ste 8A","Everett","WA","98204","425-355-1645","","https://www.hydroblok.com/find-a-dealer/daltile-everett/","47.920104","-122.2688532"
"Daltile Lakewood","4215 95th Street SW - Suite A","Lakewood","WA","98499","253-581-1130","","https://www.hydroblok.com/find-a-dealer/daltile-lakewood/","47.171026","-122.4931694"
"Daltile Las Vegas","3455 W. Sunset Rd. Ste. G","Las Vegas","NV","89118","702-361-6873","","https://www.hydroblok.com/find-a-dealer/daltile-las-vegas/","36.071380","-115.1862674"
"Daltile Ontario","3624 E. La Salle","Ontario","CA","91761","","","https://www.hydroblok.com/find-a-dealer/daltile-ontario/","34.051395","-117.5710199"
"Daltile Palm Desert","77-583 El Duna Ct, Ste A","Palm Desert","CA","92211","760-772-1298","","https://www.hydroblok.com/find-a-dealer/daltile-palm-desert/","33.767608","-116.3095427"
"Daltile Portland","3240 N.W. 29th Ave.","Portland","OR","97210","503-236-4585","","https://www.hydroblok.com/find-a-dealer/daltile-portland/","45.545709","-122.7103039"
"Daltile Redlands","2354 W. Lugonia Ave.","Redlands","CA","92374","909-796-3466","","https://www.hydroblok.com/find-a-dealer/daltile-redlands/","34.070681","-117.238097"
"Daltile San Leandro","2311 Merced Street","San Leandro","CA","94577","510-895-9006","","https://www.hydroblok.com/find-a-dealer/daltile-san-leandro/","37.707001","-122.1704363"
"Daltile Seattle","540 S. Front St.","Seattle","WA","98108","206-762-6620","","https://www.hydroblok.com/find-a-dealer/daltile-seattle/","47.548465","-122.3270445"
"Daltile Spokane","East 4000 Broadway","Spokane","WA","99202","509-534-0202","","https://www.hydroblok.com/find-a-dealer/daltile-spokane/","47.663900","-117.3511104"
"Daltile Torrance","18740 Crenshaw Blvd.","Torrance","CA","90504","310-323-4632","","https://www.hydroblok.com/find-a-dealer/daltile-torrance/","33.860323","-118.3265823"
"Daltile Van Nuys","16201 Stagg St.","Van Nuys","CA","91406","818-787-3224","","https://www.hydroblok.com/find-a-dealer/daltile-van-nuys/","34.213512","-118.4865522"
"HPM Building Supply, Hilo HI","380 Kanoelehua Avenue","Hilo","HI","96720","(808) 935-0875","","https://www.hydroblok.com/find-a-dealer/hpm-building-supply-hilo-home-design-center/","19.717330","-155.0650201"
"HPM Building Supply, Kailua-Kona HI","74-5511 Luhia Street","Kailua-Kona","HI","96740","(808) 334-4200","","https://www.hydroblok.com/find-a-dealer/hpm-building-supply-kona-retail-store-lumberyard/","19.650197","-156.0028914"
"HPM Building Supply, Waimea HI","64-1027 Mamalahoa Highway","Kamuela","HI","96743","(808) 885-6036","","https://www.hydroblok.com/find-a-dealer/hpm-building-supply-waimea-retail-store-lumberyard/","20.024629","-155.6582429"
"Lake Interiors","66 Hwy. 150","Chelan","WA","98816","(509) 682-2301",NULL,"https://lakeinteriorschelan.com","47.833905","-119.9919665"
"Lynden Interiors","2017 Front St","Lynden","WA","98264","360-354-4149","","https://www.hydroblok.com/find-a-dealer/lynden-interiors/","48.938684","-122.4864651"
"Marazzi Tile & Stone","9020 Activity Road Ste B","San Diego","CA","92126","858.547.8453","","https://www.hydroblok.com/find-a-dealer/marazzi-tile-stone/","32.896447","-117.1326091"
"Sams Flooring Supplies Abbotsford","#103 30755 Simpson Rd.","Abbostford","BC","V2T 6X4","604-850-6477","","https://www.hydroblok.com/find-a-dealer/sams-flooring-supplies-abbotsford/","49.046398","-122.3706777"
"Sams Flooring Supplies Chilliwack","#B 8850 Young Rd.","Chilliwack","BC","V2P 4P5","604-795-6521","","https://www.hydroblok.com/find-a-dealer/sams-flooring-supplies-chilliwack/","49.162958","-121.952092"
"Sams Flooring Supplies Kelowna","#100 1516 Keehn Rd.","Kelowna","BC","V1X 5T3","250-860-8886","","https://www.hydroblok.com/find-a-dealer/sams-flooring-supplies-kelowna/","49.891120","-119.4155411"
"Sams Flooring Supplies Langley","#8 20701 Langley Bypass","Langley","BC","V3A 5E8","604-530-2949","","https://www.hydroblok.com/find-a-dealer/sams-flooring-supplies-langley/","49.113239","-122.6490234"
"Sams Flooring Supplies Surrey","#227 12448 82nd Ave. ","Surrey","BC","V3W 2E9","604-594-9888","","https://www.hydroblok.com/find-a-dealer/sams-flooring-supplies-surrey/","49.151042","-122.8778542"
"Sams Flooring Supplies Vernon","#2 4601 23rd St.","Vernon","BC","V1T 4K7","250-260-7075","","https://www.hydroblok.com/find-a-dealer/sams-flooring-supplies-vernon/","50.278827","-119.2609731"
"Seattle Glass Block","6029 238th Street SE","Woodinville","WA","98072","425-483-9977","","https://www.hydroblok.com/find-a-dealer/seattle-glass-block/","47.782837","-122.1528561"
"Sierra Glass Block","8230 Belvedere Ave., Ste. E","Sacramento","CA","95826","916-455-5507","","https://www.hydroblok.com/find-a-dealer/sierra-glass-block/","38.537553","-121.4026111"
"Tile for Less Bothell","19400 Bothell Everett Hwy","Bothell","WA","98012","425-415-6600","","https://www.hydroblok.com/find-a-dealer/tile-for-less-bothell/","47.821464","-122.2079403"
"Tile for Less Seattle","2440 First Ave. S","Seattle","WA","98134","(206) 489-4504","seattle@tileforlessnw.com","https://tileforlessnw.com/","47.580669","-122.3338905"
"Tile for Less Spokane Valley","5414 E. Sprague","Spokane Valley","WA","99212","509.315.5176","","https://www.hydroblok.com/find-a-dealer/tile-for-less-spokane-valley/","47.656549","-117.3316352"
"Tile Lines","1531 Central Ave S","Kent","WA","98108","253-872-0449","","https://www.hydroblok.com/find-a-dealer/tile-lines/","47.365692","-122.2303324"
"United Tile Portland","3145 NW Yean Ave.","Portland","OR","97210","503-231-4959","","https://www.hydroblok.com/find-a-dealer/united-tile-portland/","45.543550","-122.7021864"
"United Tile Seattle","750 S. Michigan Street","Seattle","WA","98108","425-251-5290","","https://www.hydroblok.com/find-a-dealer/united-tile-seattle/","47.547336","-122.3242706"
"United Tile Spokane","622 East Second","Spokane","WA","99202","509-466-4478","","https://www.hydroblok.com/find-a-dealer/united-tile-spokane/","47.654349","-117.4010589"
"BASSANO BUILDING CENTER (TIMBER MART)","417 - 11th Street Box 368","Bassano","AB","T0J 0B0","403-641-4000","bassbuilding@eidnet.org","https://www.timbermart.ca/en/stores/bassano-building-center-ltd","50.789479","-112.4686447"
"Heart Mountain Home","1659 E Main St","Freeland","WA","98249","360-221-1124","","https://www.hydroblok.com/find-a-dealer/heart-mountain-home/","48.009855","-122.525418"
"Daltile Anaheim ","1600 S. Page St.","Anaheim","CA","92806","714.634.2546","","https://www.hydroblok.com/find-a-dealer/daltile-anaheim/","33.808049","-117.8863593"
"Daltile Sacramento","9971 Horn Road","Sacramento","CA","95827","(916) 364-0741","","https://www.hydroblok.com/find-a-dealer/daltile-sacramento/","38.577896","-121.3224925"
"American Olean / Marazzi Tile & Stone","1955 Davis St","San Leandro","CA","94577","510-394-9800","","https://www.hydroblok.com/find-a-dealer/american-olean-marazzi-tile-stone-2/","37.713482","-122.1817556"
"American Olean / Marazzi Tile & Stone","4935 Southfront Rd","Livermore","CA","94551","925-449-0338","","https://www.hydroblok.com/find-a-dealer/american-olean-marazzi-tile-stone/","37.700234","-121.7393158"
"Esta Aqui Tile","2124 Grant Street","Bellingham","WA","98226","(360) 734-7374","","https://www.hydroblok.com/find-a-dealer/Esta-Aqui-tile/","48.758507","-122.4688015"
"Daltile Boise","11510 West Executive Drive","Boise","ID","83713","(208) 375-4466","","https://www.hydroblok.com/find-a-dealer/daltile-boise/","43.609880","-116.3264848"
"Emser Tile Boise","12050 West Franklin Road","Boise","ID","83709","(208) 375-2020","","https://www.hydroblok.com/find-a-dealer/emser-tile-boise/","43.604934","-116.3142382"
"American Olean / Marazzi Phoenix","2115 S 11th Ave Suite 170","Phoenix","AZ","85007","(602) 252-5357","","https://www.hydroblok.com/find-a-dealer/american-olean-marazzi-phoenix/","33.428515","-112.0854559"
"American Olean / Marazzi Denver","12435 E 42nd Ave Unit 10","Denver","CO","80239","(303) 375-8253","","https://www.hydroblok.com/find-a-dealer/daltile-american-olean-marazzi-sales-service-center/","39.775742","-104.8440938"
"American Olean / Marazzi Salt Lake City","2922 South 300 West","Salt Lake City","UT","84115","(801) 466-9736","","https://www.hydroblok.com/find-a-dealer/american-olean-marazzi-salt-lake-city/","40.707112","-111.9004992"
"American Olean / Marazzi Anaheim","1340 S State College Blvd.","Anaheim","CA","92806","(714) 956-7565","","https://www.hydroblok.com/find-a-dealer/american-olean-marazzi-anaheim/","33.814035","-117.8881904"
"Dal Tile Fairfield CA","2350 S Watney Way, Suite A","Fairfield","CA","94533","(707) 429-4592","","https://www.hydroblok.com/find-a-dealer/daltile-fairfield-ca/","38.234089","-122.0729948"
"SariSand Tile","685 Rio Road West","Charlottesville","VA","22901","434-964-4680","","https://www.hydroblok.com/find-a-dealer/sarisand-tile/","38.084194","-78.47706769999999"
"Daltile Honolulu","1200 N Nimitz Hwy","Honolulu","HI","96817","(808) 523-3660","","https://www.hydroblok.com/find-a-dealer/daltile-honolulu/","21.319908","-157.8764463"
"Daltile Chico","206 Meyers St.","Chico","CA","95928","(530) 343-6425","","https://www.hydroblok.com/find-a-dealer/daltile-chico/","39.714205","-121.8185072"
"Daltile Redding CA","3065 Crossroads Drive","Redding","CA","96003"," (530) 221-8453","","https://www.hydroblok.com/find-a-dealer/daltile-redding-ca/","40.561264","-122.2971608"
"Standard Paint and Flooring L.L.C.","149 Easy Way","Wenatchee","","98901","509-663-8574","","https://www.hydroblok.com/find-a-dealer/standard-paint-and-flooring-l-l-c/","47.468117","-120.3326644"
"Emser Tile","5712 1400, S State College Blvd","Anaheim","CA","92806","(714) 778-5777","","https://www.hydroblok.com/find-a-dealer/emser-tile/","33.812704","-117.8883735"
"Northwest Trends","11315 E Montgomery Dr","Spokane Valley","WA","99206","(509) 921-9677","","https://www.hydroblok.com/find-a-dealer/northwest-trends/","47.679357","-117.2524168"
"Floor Trader Outlet Spokane","6227 N Division S","Spokane","WA","99208","(509) 309-0673","","https://www.hydroblok.com/find-a-dealer/floor-trader-outlet-spokane/","47.714584","-117.4118987"
"Mount Vernon Carpet One Floor and Home","400 West Fir Street","Mount Vernon","WA","98273","360-336-6533","","https://www.hydroblok.com/find-a-dealer/Mount%20Vernon%20Carpet%20One%20Floor%20and%20Home/","48.427979","-122.3383014"
"Emser Tile - La Vista NE","11941 Centennial Road, Suite 6","La Vista","NE","68128","402-339-8453","","","41.169704","-96.099639"
"Daltile Plymouth Meeting","5105 Campus Dr","Plymouth Meeting","PA","19462","610-825-5381","","https://www.hydroblok.com/find-a-dealer/daltile-plymouth-meeting/","40.114247","-75.265862"
"Weilers Kitchens & Bath Designs","350 Bustleton Pike","Feasterville-Trevose","PA","19053","215-357-9300","","https://www.hydroblok.com/find-a-dealer/weilers-kitchens-bath-designs/","40.143743","-75.0056642"
"Clarks Building & Decorating","417 Westinghouse Dr","Hot Springs National Park","AR","71901","(501) 262-2262","","https://www.hydroblok.com/find-a-dealer/clarks-building-decorating-center/","34.495446","-92.9850171"
"EMCO / Ensuite Windsor","2740 Temple Dr","Windsor","ON","N8W 5J5","(519) 948-8131","","https://www.hydroblok.com/find-a-dealer/emco-ensuite-windsor/","42.288106","-82.9779609"
"EMCO","300 Fee St","North Bay","ON","P1B 8G5","(705) 476-0701","","https://www.hydroblok.com/find-a-dealer/emco-emco-north-bay/","46.324973","-79.48921059999999"
"Showroom Flooring","870 Cliffe Ave","Courtenay","BC","V9N 2J7","(250) 871-8453","sales@showroomflooring.ca","https://showroomflooring.ca/","49.688808","-124.9952123"
"Daltile Santa Rosa CA","258 Sutton Pl Ste # 101","Santa Rosa","CA","95407","707-588-0842","","https://www.hydroblok.com/find-a-dealer/daltile-santa-rosa-ca/","38.390339","-122.721755"
"EMCO Corporation","800 Wilson Rd S #2","Oshawa","Ontario","L1H 6E8","(905) 723-1173","","https://www.hydroblok.com/find-a-dealer/emco-emco-oshawa/","43.879735","-78.834927"
"Insulation and Supply - Manitowoc","1129 S 41st Street","Manitowoc","WI","54220","1-800-242-7619","","https://www.hydroblok.com/find-a-dealer/insulation-supply-manitowoc/","44.086649","-87.697785"
"Insulation and Supply - Green Bay","3158 Market St","Green Bay","WI","54304","1-800-472-0048","","https://www.hydroblok.com/find-a-dealer/insulation-supply-green-bay/","44.463567","-88.08583980000002"
"Insulation and Supply - Greenville","N1044 Quality Dr.","Greenville","WI","54942","1-800-223-1061","","https://www.hydroblok.com/find-a-dealer/insulation-and-supply-greenville/","44.278371","-88.5076473"
"Continental Flooring Installation","1395 Alpha Lake Rd.","Whistler","BC","V0N 1B1","604-962-8453","","https://www.hydroblok.com/find-a-dealer/continental-flooring-installation/","50.089897","-123.0311251"
"Daltile Loveland CO","5741 Earhart Rd","Loveland","CO","80538","970-622-9741","","https://www.hydroblok.com/find-a-dealer/daltile-daltile-loveland-co/","40.450813","-104.9952031"
"Ceramic Tileworks Center, Omaha, NE","11005 W. Maple Road","Omaha","NE","68164","402-493-1567","","https://www.hydroblok.com/find-a-dealer/ceramic-tileworks-center/","41.287687","-96.0849238"
"Emser Tile, Wichita KS","2333 S West St Suite 301","Wichita","KS","67213","316-943-1441","","https://www.hydroblok.com/find-a-dealer/emser-emser-wichita/","37.653014","-97.3903785"
"Signature Interior Expressions, Neosho MO","12650 Hammer Rd","Neosho","MO","64850","417-451-0535","","https://www.hydroblok.com/find-a-dealer/signature-interior-expressions-signature-interior-expressions-neosho-mo/","36.885637","-94.4262768"
"Emser Tile, La Vista NE","11941 Centennial Rd Suite #6","La Vista","NE","68128","402-339-8453","","https://www.hydroblok.com/find-a-dealer/emser-emser-omaha/","41.169704","-96.099639"
"Emser Tile, Little Rock AR","10068 Maumelle Blvd","Little Rock","AR","72113","","","https://www.hydroblok.com/find-a-dealer/emser-emser-little-rock/","34.821867","-92.3729553"
"Daltile Maryland Heights, MO","2059 Westport Center Dr","Maryland Heights","MO","63146","(314) 997-6970","","https://www.hydroblok.com/find-a-dealer/daltile-daltile-maryland-heights/","38.695391","-90.4222125"
"Daltile Knoxville, TN","1714 Louisville Dr. Ste B","Knoxville, TN","TN","37921-5903","(865) 588-2155","","https://www.hydroblok.com/find-a-dealer/daltile-daltile-knoxville/","35.960377","-84.011223"
"Daltile Burr Ridge, IL","7600 South Grant St.","Burr Ridge, IL","IL","60527","(630) 789-1400","","https://www.hydroblok.com/find-a-dealer/daltile-daltile-burr-ridge/","41.749385","-87.93056949999999"
"Daltile South Bend, IN","3235 Rosetta Place Dr. Ste # 1","South Bend, IN","IN","46628","","","https://www.hydroblok.com/find-a-dealer/daltile-daltile-south-bend/","41.712595","-86.29717910000001"
"Daltile Springdale, AR","373-A Agnes Drive ","Springdale, AR","AR","72762-4134","(479) 361-5825","","https://www.hydroblok.com/find-a-dealer/daltile-daltile-springdale/","36.172559","-94.22605320000001"
"Carolina Tile and Stone, Cornelius, NC","19020 Statesville Rd","Cornelius, NC","NC","28031","(704) 892-2442","","https://www.hydroblok.com/find-a-dealer/carolina-tile-and-stone/","35.473515","-80.87397"
"Ralph's Floors, Lynden, WA","1842 Front Street","Lynden","WA","98264-1723","(360) 227-8494","","https://www.hydroblok.com/find-a-dealer/Ralphs-Floors-Lynden-WA/","48.939556","-122.4772879"
"Emser Tile","10550 Lackman Rd","Lenexa","KS","66219","(913) 894-4888 ","","https://www.hydroblok.com/find-a-dealer/emser-emser-kansas/","38.937226","-94.76140540000002"
"Mckenna DIstribution","620 Vennels St.","Regina","SK","S4N5S5","306-359-7755","info@mckdist.com","https://www.hydroblok.com/find-a-dealer/mckenna-distribution/","50.468787","-104.5771278"
"Daltile / Daltile Columbus","730 Dearborn Park Ln","Columbus","OH","43085","(614) 433-9181","Columbus.SSC219@Daltile.com","https://www.hydroblok.com/find-a-dealer/daltile-daltile-columbus/","40.116784","-82.9974692"
"Daltile / Daltile St.Louis","2051 Westport Center Dr","St. Louis","MO","63146","(314) 824-1367","Columbus.SSC219@Daltile.com","https://www.hydroblok.com/find-a-dealer/daltile-daltile-st-louis/","38.694475","-90.4221519"
"Gordon Wall Windows & Floors ","801 Victoria St","Trail","BC","V1R 3T3","(250) 364-2537","","https://www.hydroblok.com/find-a-dealer/gw-floors-gordon-walls-windows-floors/","49.096877","-117.7117095"
"Home Hardware Nelson ","101 Mcdonald Drive","Nelson","BC","V1L 6B2","(250) 352-1919","","https://www.hydroblok.com/find-a-dealer/home-hardware-nelson/","49.493492","-117.2991534"
"Floor Store Salmon Arm","241  5th St SW","Salmon Arm","BC","V1E 1S9","(250) 832-1944","","https://www.hydroblok.com/find-a-dealer/floor-store-salmon-arm/","50.698535","-119.291987"
"Northern Capital Wood Products","381 McAloney Road, Unit C","Prince George","BC","V2K 4L2","(250) 564-6171","ncwpwood@telus.net","https://www.hydroblok.com/find-a-dealer/northern-capital-wood-products/","53.928371","-122.7742467"
"Canada Flooring Enterprises Ltd. ","9049 Quartz Road","Whitehorse","YT","Y1A 4Z5","(867) 667-7290","","https://www.hydroblok.com/find-a-dealer/canada-flooring-enterprises-ltd/","60.736790","-135.0805894"
"G&J Design Flooring","1295 Hwy 97 N","Quesnel","BC","V2J 2Y5","250-992-2272","","https://www.hydroblok.com/find-a-dealer/gj-design-flooring/","52.995269","-122.509518"
"The Tile Guy Flooring LTD. ","4413-29th Street","Vernon","BC","V1T 5B7","250-545-8453","","https://www.hydroblok.com/find-a-dealer/the-tile-guy-flooring-ltd/","50.277177","-119.2696361"
"Southwest Flooring & Supply ","1102 Chief Mountain Ave, Bay 100/200","Pincher Creek","AB","T0K 1W0","(403) 308-7050","","https://www.hydroblok.com/find-a-dealer/southwest-flooring-supply/","49.500282","-113.9438182"
"The Flooring Hub","5137-26th Street","Vernon","BC","V1T 8G4","(778) 475-7700","","https://www.hydroblok.com/find-a-dealer/the-flooring-hub/","50.284401","-119.2661196"
"Pacific Coast Floor Coverings Inc. ","2374 Millstream Rd.","Victoria","BC","V9B 3R3","(250) 474-0411","","https://www.hydroblok.com/find-a-dealer/pacific-coast-floor-coverings-inc/","48.462832","-123.4990989"
"Prodigy Interiors Inc. ","191 Eversyde Circle SW","Calgary","AB","T2Y 4T4","403-589-4419","","https://www.hydroblok.com/find-a-dealer/prodigy-interiors-inc/","50.908900","-114.1086631"
"Contemporary Bathrooms C/O Rosedale","5620 68 Avenue Southeast Bay 2","Calgary","AB","T2C 5L1","(403) 291-2200","","https://www.hydroblok.com/find-a-dealer/contemporary-bathrooms-c-o-rosedale/","50.995113","-113.9502793"
"Tileworks & Frontier Irrigation ","1702 2 Ave S","Lethbridge","AB","T1J 0G3","403-328-6197","","https://www.hydroblok.com/find-a-dealer/tileworks-frontier-irrigation/","49.697348","-112.8174818"
"Best Tile & Wood II Inc","69 State Rt. 31,","Flemigton","NJ","08822","(908) 782-6707","","https://www.hydroblok.com/find-a-dealer/best-tile-wood-ii-inc/","40.513124","-74.8519467"
"Buffalo Glass Block","520 Hinman Ave","Buffalo","NY","14216"," (716) 873-3553","","https://www.hydroblok.com/find-a-dealer/buffalo-glass-block/","42.956276","-78.8885749"
"Coast Tile and Marble","3168 Fire Rd","Egg Harbor Township","NJ","08234","(609) 646-9346","","https://www.hydroblok.com/find-a-dealer/coast-tile-and-marble/","39.386973","-74.5678396"
"Daltile Allentown","904 Marcon Blvd","Allentown","PA","18109","(610) 266-6688","","https://www.hydroblok.com/find-a-dealer/daltile-allentown/","40.639182","-75.4467628"
"Daltile Baton Rouge","12037 Airline Hwy","Baton Rouge","LA","70817","(225) 751-3194","","https://www.hydroblok.com/find-a-dealer/daltile-baton-rouge/","30.391823","-91.0475155"
"Daltile Daytona","703 Samms Ave Ste C","Port Orange","FL","32129","(386) 767-9561","","https://www.hydroblok.com/find-a-dealer/daltile-daytona/","29.139633","-80.99810219999999"
"Daltile Fayetteville","373-A Agnes Dr","Tontitown","AR","72762","(479) 361-5825","","https://www.hydroblok.com/find-a-dealer/daltile-fayetteville/","36.172549","-94.22634599999999"
"Daltile Jacksonville","9446 Philips Hwy","Jacksonville","FL","32256","904-262-0444","","https://www.hydroblok.com/find-a-dealer/daltile-jacksonville/","30.194747","-81.569159"
"Daltile Salisbury","2257 Northwood Dr Suite A","SALISBURY","MD","21801","(410) 546-1015","","https://www.hydroblok.com/find-a-dealer/daltile-salisbury/","38.405289","-75.5765661"
"Daltile Mechanicsburg","4750 WESTPORT DR STE 100","MECHANICSBURG","PA","17055","(717) 795-0154","","https://www.hydroblok.com/find-a-dealer/daltile-mechanicsburg/","40.205666","-76.954314"
"Daltile Pittsburgh","104 Parkway View Dr","Pittsburgh","PA","15205","(412) 787-2040","","https://www.hydroblok.com/find-a-dealer/daltile-pittsburgh/","40.432755","-80.13205710000001"
"Daltile Sarasota ","7450 26th Court East Unit 112","Sarasota","FL","34243","(941) 355-2954","","https://www.hydroblok.com/find-a-dealer/daltile-sarasota/","27.408278","-82.5320243"
"Daltile Springfield","2710 S Austin Ave","Springfield","MO","65807","(417) 883-4600","","https://www.hydroblok.com/find-a-dealer/daltile-springfield/","37.166169","-93.3241365"
"Emser Tile -  Los Angeles","8431 Santa Monica Blvd","Los Angeles","CA","90069","(502) 962-7255","","https://www.hydroblok.com/find-a-dealer/emser-tile-los-angeles/","34.090918","-118.3737241"
"Five Star Bath Solutions","6008 E 1245 Mile Road","Warren","MI","48092","","","https://www.hydroblok.com/find-a-dealer/five-star-bath-solutions/","42.476730","-83.08448299999999"
"Hunt Valley Tile & Stone","11110 Pepper Rd Suite D","Hunt Valley","MD","21031","(410)-771-6441","","hhttps://www.hydroblok.com/find-a-dealer/hunt-valley-tile-stone/","39.489558","-76.6549296"
"Natural Stone and Tile","8875 Bash St","Indianapolis","IN","46256","(317) 863-5926","","https://www.hydroblok.com/find-a-dealer/natural-stone-and-tile/","39.916366","-86.0410529"
"Minnesota Tile & Stone - Lakeville","17615 Kenrick Ave.","Lakeville","MN","55044","(952) 898-1960","","https://www.hydroblok.com/find-a-dealer/minnesota-tile-stone/","44.693948","-93.2881524"
"Minnesota Tile & Stone - Plymouth","1797 Xenium Ln N","Plymouth","MN","55441","(763) 233-7060","","https://www.hydroblok.com/find-a-dealer/minnesota-tile-stone-plymouth/","44.998719","-93.45193379999999"
"Minnesota Tile & Stone - Woodbury","9703 Hudson Rd","Woodbury","MN","55125","(651) 730-0447","","https://www.hydroblok.com/find-a-dealer/minnesota-tile-stone-woodbury/","44.946347","-92.9100277"
"Minnesota Tile & Stone - Minnetonka","6001 Culligan Way","Minnetonka","MN","55345","(952) 345-9425","","https://www.hydroblok.com/find-a-dealer/minnesota-tile-stone-minnetonka/","44.894363","-93.44817809999999"
"Tool Republic","2310 St. Laurent Blvd, Unit 305,","Ottawa","ON","K1G 5H9","(613) 523-5555","","https://www.hydroblok.com/find-a-dealer/tool-republic/","45.385283","-75.619677"
"Village Tile","6306 Main St","Stouffville","ON","L4A 1G8","(905) 591-8453","","https://www.hydroblok.com/find-a-dealer/village-tile/","43.971774","-79.2457977"
"Sage Kitchen & Bath"," 12 Bram Court, Unit 9","Brampton","ON","L6W 3R6","(647)280-6917","info@SageKitchenandBath.ca","https://www.hydroblok.com/find-a-dealer/sage-kitchen-bath/","43.684226","-79.71492889999999"
"Daltile West Atlanta","3021 Olympic Industrial Dr SE # 100","Atlanta","GA","30339","(404) 355-3180","","https://www.hydroblok.com/find-a-dealer/daltile-west-atlanta/","33.832692","-84.4658265"
"Daltile Charlotte","405 Forsyth Hall Drive","Charlotte ","NC","28273","(704) 588-0153","","https://www.hydroblok.com/find-a-dealer/daltile-charlotte/","35.119796","-80.9140486"
"Daltile Fayetteville","1211 Ireland Dr. Ste # 14","Fayetteville","NC","28304","(910) 323-3004","","https://www.hydroblok.com/find-a-dealer/daltile-fayetteville/","35.041862","-78.9463251"
"Daltile North Little Rock","9460 Maumelle Blvd. ","North Little Rock","AR","72113","(501) 812-4800","","https://www.hydroblok.com/find-a-dealer/daltile-north-little-rock/","34.817687","-92.3660649"
"Daltile Baton Rouge","12037 Airline Hwy","Baton Rouge ","LA","70816","(225) 751-3194","","https://www.hydroblok.com/find-a-dealer/daltile-baton-rouge/","30.391823","-91.0475155"
"Daltile Ridgeland","108 East State St.","Ridgeland","MS","39157","(601) 853-2714","","https://www.hydroblok.com/find-a-dealer/daltile-ridgeland/","32.408334","-90.13977249999999"
"Daltile Springfield","2710 S. Austin St.","Springfield","MO","65807","(417) 883-4600","","https://www.hydroblok.com/find-a-dealer/daltile-springfield/","37.166169","-93.3241365"
"Daltile Farmington Hills","24640 Drake Rd.","Farmington Hills","MI","48335","(248) 471-7150","","https://www.hydroblok.com/find-a-dealer/daltile-farmington-hills/","42.471953","-83.395523"
"Daltile Mechanicsburg","4750 Westport Drive Ste # 100","Mechanicsburg","PA","17055","(717) 795-0154","","https://www.hydroblok.com/find-a-dealer/daltile-mechanicsburg/","40.205666","-76.954314"
"Daltile Allentown","904 Marcon Blvd. ","Allentown","PA","18109","(610) 266-6688","","https://www.hydroblok.com/find-a-dealer/daltile-allentown/","40.639182","-75.4467628"
"Daltile Dayton","181 Herrod Blvd. Ste # 12","Dayton","NJ","08810","(609) 409-7687","","https://www.hydroblok.com/find-a-dealer/daltile-daytona/","40.355930","-74.48822779999999"
"Daltile Port Orange","703 Samms Ave Ste C ","Port Orange","FL","32129","(386) 767-9561","","https://www.hydroblok.com/find-a-dealer/daltile-port-orange/","29.139633","-80.99810219999999"
"Daltile Jacksonville","9446 Philips Hwy Ste 10","Jacksonville","FL","32256","(904) 262-0444","","https://www.hydroblok.com/find-a-dealer/daltile-jacksonville/","30.194696","-81.56918220000001"
"Daltile Miramar Beach","195 Business Centre Dr. ","Miramar Beach","FL","32550","(850) 837-5508","","https://www.hydroblok.com/find-a-dealer/daltile-miramar-beach/","30.382253","-86.3785948"
"Daltile Naples","2900 Horseshoe Dr., South Suite 700","Naples","FL","34104","(239) 643-1823","","https://www.hydroblok.com/find-a-dealer/daltile-naples/","26.161388","-81.7709263"
"Daltile Fort Wayne","6401 Cross Creek Blvd","Fort Wayne","IN","46818","(260)489-8799","","https://www.hydroblok.com/find-a-dealer/daltile-fort-wayne/","41.138256","-85.1682701"
"BuildMyPlace","2900 Fern Valley Rd","Louisville","KY","40213","(740) 697-5223","","https://www.hydroblok.com/find-a-dealer/build-my-place/","38.155737","-85.7106962"
"Daltile Mesquite","4400 US HWY 80 E, STE 140","Mesquite","TX","75149","(972) 613-4711","","","32.795851","-96.6659784"
"Daltile Carrollton","1705 Wallace Drive, Suite 100","Carrollton","TX","75006","(972) 245-3185","","","32.939629","-96.92679369999999"
"Daltile Fort Worth","3328 Fossil Creek BLVD","Fort Worth","TX","76137","(972) 489-7073","","","32.847379","-97.3115497"
"Daltile San Antonio","1119 Arion Pkwy","San Antonio","TX","78216","(210) 403-0298","","","29.549400","-98.4761011"
"Daltile Arlington","2500 E Mayfield Rd ,Ste 300","Arlington","TX","76014","(817) 784-3853","","","32.690836","-97.0652206"
"Daltile Plano","1300 E Plano Pkwy A","Plano","TX","75074","(972) 578-1600","","","33.006341","-96.6946404"
"Standard Paint and Flooring","130 S 72nd Ave","Yakima","WA","98908","(509) 972-7620","","https://www.hydroblok.com/find-a-dealer/standard-paint-and-flooring/","46.596098","-120.6063226"
"Daltile Charleston","2261 Technical Pkwy Ste B","Charleston","SC","29406","(509) 972-7620","","https://www.hydroblok.com/find-a-dealer/daltile-charleston/","32.910524","-80.032352"
"SVC Interiors & Design Inc - Bellingham","1701 Ellis St, STE 107","Bellingham","WA","98225","(360) 676-6036","","https://www.hydroblok.com/find-a-dealer/svc-interiors-design-inc-bellingham/","48.752133","-122.4723879"
"Custom Touch Interiors","13029 NE 20th St","Bellevue","WA","98005","(425) 883-0555","","https://www.hydroblok.com/find-a-dealer/custom-touch-interiors/","47.627691","-122.165924"
"Standard Paint & Flooring, L.L.C. - Yakima","409 W Yakima Ave","Yakima","WA","98902","(509) 453-3171","","https://www.hydroblok.com/find-a-dealer/standard-paint-flooring-l-l-c-yakima/","46.600993","-120.5152148"
"Ceramic Tile Supply NW","1620 W 7th Ave","Eugene","OR","97402","541-343-0449","","http:// https://www.hydroblok.com/find-a-dealer/ceramic-tile-supply-nw/","44.051846","-123.1173497"
"Color Tile of Medford","3069 Crater Lake Ave","Medford"," OR","97504","(541) 776-3220","","https://www.hydroblok.com/find-a-dealer/color-tile-of-medford/","42.361246","-122.856127"
"Carpet One Floor & Home","1606 N Portland St","La Grande"," OR","97850","(541) 963-6033","","https://www.hydroblok.com/find-a-dealer/carpet-one-floor-home/","45.327568","-118.0790321"
"Southeastern Tile Connection Wilmington","2101 Capital Drive","Wilmington","NC","28405","(910) 799-5565","info@setileconnection.com","https://www.hydroblok.com/find-a-dealer/southeastern-tile-connection-wilmington/","34.284946","-77.8742883"
"Southeastern Tile Connection Durham","3738 Durham-Chapel Hill Blvd,. Unit D","Durham","NC","27707","(919) 237-9845","info@setileconnection.com","http:// https://www.hydroblok.com/find-a-dealer/southeastern-tile-connection-wilmington/ ","35.971667","-78.9533196"
"Sunsai Tile and Surfaces","1510 Drew Rd #14,","Mississauga","ON","L5S 1W7","+1 647-407-1191","","https://www.hydroblok.com/find-a-dealer/sunsai-tile-and-surfaces/","43.680469","-79.68067789999999"
"ATS Supply Ltd.","13451 Doole Road","Ladysmith","BC","V9G 1G6","250-661-6794","atssupplyltd@gmail.com","https://atssupply.ca/","49.043346","-123.7991889"
"Daltile Myrtle Beach","1330 17th Ave S","Myrtle Beach","SC","29577","(843) 839-0033","","https://www.hydroblok.com/find-a-dealer/daltile-myrtle-beach/","33.692744","-78.9168779"
"Daltile San Rafael","25 Pelican Way","San Rafael","CA","94901","(415)454-8610","","https://www.hydroblok.com/find-a-dealer/daltile-san-rafael/","37.949521","-122.4933352"
"EMCO Guelph","65 Dawson Rd #1","Guelph","ON","N1H 1B1","(519)822-9160","","https://www.hydroblok.com/find-a-dealer/emco-guelph/","43.547801","-80.2763825"
" Premier Surface & Supply LLC","12971 Eaton St","Detroit","MI","48227","(313) 659-6115","","https://www.hydroblok.com/find-a-dealer/premier-surface-supply-llc/","42.396981","-83.1738388"
"ProSource of Seattle","21312 30th Dr SE Suite B-107","Bothell","WA","98021","425-487-4343 ext. 100","","https://www.hydroblok.com/find-a-dealer/prosource-of-seattle/","47.804429","-122.1961172"
"East Coast Granite & Tile","3042 E Chestnut Expy,","Springfield","MO","65802","417-423-7722","","https://www.hydroblok.com/find-a-dealer/east-coast-granite-tile/","37.209412","-93.2324783"
" Curran Design Center","1609 N State Highway CC","Nixa","MO","65714","417-724-1018","","","37.073427","-93.2942168"
"Lakeside Renovations & Design","139 Chesterfield Industrial Blvd","Chesterfield","MO","63005","636-978-5000","","","38.665465","-90.62245209999999"
"Carpet One Floor & Home","105 Business Loop 70 E,","Columbia","MO","65203","(573) 303-5680","","","38.965102","-92.3359739"
"Homestar Design Remodel","13014 Manchester Rd, Suite C","Saint Louis","MO","63131","(314) 328-8200","","https://www.hydroblok.com/find-a-dealer/homestar-design-remodel/","38.602141","-90.459908"
" The Tile House, Whitby, ON","1400 Victoria Street East, Unit 3","Whitby","ON","L1N 0M2","(905) 668-2434","","https://www.hydroblok.com/find-a-dealer/the-tile-house-whitby/","43.866622","-78.91167380000002"
"Mees Distributors, Inc.","1541 West Fork Rd","Cincinnati","OH","45223","513-541-2311","jmassengale@meesdistributors.com","https://www.hydroblok.com/find-a-dealer/mees-distributors-inc/","39.163613","-84.55356789999999"
"Alpha Tile & Stone - Tampa","2443 East Meadow BLVD","Tampa","FL","33619","813-620-9000","tony@alphatile.com","https://www.hydroblok.com/find-a-dealer/alpha-tile-stone-tampa/","27.964333","-82.3626759"
"Alpha Tile & Stone - Sarasota","1808 Whitfield Avenue","Sarasota","FL","34243","941-727-7433","mikem@alphatile.com","https://www.hydroblok.com/find-a-dealer/alpha-tile-stone-sarasota/","27.417731","-82.5420022"
"Alpha Tile & Stone - Ft. Myers","10898 Metro Pkwy, Suite A","Ft. Myers","FL","33966","239-275-8288","lynn@alphatile.com","https://www.hydroblok.com/find-a-dealer/alpha-tile-stone-ft-myers/","26.583631","-81.8540255"
"M2 Tile & Stone + Slabs","26 Dufflaw Rd","Toronto","ON","M6A 2W1","416-850-1045","christine@m2tilestone.com","https://m2tilestone.com/","37.090240","-95.712891"
"Maris Home Improvements","208 Chesterfield Industrial Blvd.","Chesterfield","MO","63005","(636) 948-6004","","https://www.hydroblok.com/find-a-dealer/maris-home-improvements/","38.662838","-90.62111019999999"
"Global Stone LLC ","421 N Rawhide","Olathe","KS","66061","(913) 764-9400","","","38.886612","-94.7914234"
"Global Stone LLC "," 7613 NW. Prairie View Rd","Kansas City","MO","64151","(816)656-5111","","","39.233188","-94.6577253"
"Millenium Slate LLC","2027 County Rt 23","Middle Granville","NY","12849","855-677-6257","info@mslate.rocks","https://www.hydroblok.com/find-a-dealer/millenium-slate-llc/","43.433219","-73.2831515"
"Cabinet Design Studio","146th & Industrial Road","Omaha","NE","68144","(531) 301-9550","info@cabinetsomaha.com","https://www.hydroblok.com/find-a-dealer/cabinet-design-studio/","41.223547","-96.1370398"
"M2 Tile & Stone + Slabs","26 Dufflaw Rd","Toronto","ON","M6A 2W1","416-850-1045","info@m2tilestone.com","https://www.hydroblok.com/find-a-dealer/m2tilestone-distribution/","43.714597","-79.4624829"
"Daltile Cranberry - Pittsburgh North","220 Executive Dr. Ste 100-200","Cranberry Twp","PA","16066","(724) 776-2311","mark.mckinnis@daltile.com","https://locations.daltile.com/pa/cranberry-township/284/","40.687018","-80.1083365"
" BT Bath Inc.","35 Gotha St","Trenton","Ontario","K8V 6C9","416-986-5051","","https://btbath.ca","44.106004","-77.5868812"
"Daltile New Orleans","700 Elmwood pkwy. suite B","New Orleans","LA","70123","(504) 818-0118","","https://locations.daltile.com/la/new-orleans/110/","34.206818","-118.2000277"
"Daltile New Orleans","700 Elmwood pkwy. suite B","New Orleans","LA","70123","(504) 818-0118","","https://locations.daltile.com/la/new-orleans/110/","34.206818","-118.2000277"
"MB Services","2101 Baldwin Ave Suite 1","Crofton","Maryland","21114","(443) 590-5048","","http://www.mb-services.us","38.987085","-76.6935617"
"Iron Mountain Stone & Tile","","Concord","NC","28025","980-253-3451 ","ironmountainstone@gmail.com","https://www.ironmountainstone.com/","35.408752","-80.579511"
"ProSource Of Acadiana","321 E. Verot School Road","Lafayette","LA","70508","337-205-3606","","https://www.prosourcewholesale.com/showrooms/la-prosource-of-acadiana","30.180169","-91.9987441"
"ProSource Of Mobile","1558 West Interstate 65 Service Rd S","Mobile","AL","36693","(251) 202-3670","","https://www.prosourcewholesale.com/showrooms/al-prosource-of-mobile","30.657316","-88.1257069"
"ProSource of Baton Rouge","10848 Airline Hwy","Baton Rouge","LA","70809","(225) 230-4626","","https://www.prosourcewholesale.com/showrooms/la-prosource-of-baton-rouge","30.405814","-91.0624318"
"ProSource of New Orleans","1525 Edwards Ave","Harahan","LA","70123"," (504) 291-3904","","https://www.prosourcewholesale.com/showrooms/la-prosource-of-new-orleans","29.963340","-90.1955309"
"ProSource of Gonzales","2325 S Commerce Ave","Gonzales","LA","70737","(225) 230-4625","","https://www.prosourcewholesale.com/showrooms/la-prosource-of-gonzales","30.212301","-90.9409302"
"ProSource of Jackson","6370 Cole Rd","Ridgeland","MS","39157","(601) 255-2877","","https://www.prosourcewholesale.com/showrooms/ms-prosource-of-jackson","32.402802","-90.1754721"
"ProSource of Mandeville","13464 Seymour Myers Dr.","Covington","LA","70433","(985) 206-8619","","https://www.prosourcewholesale.com/showrooms/la-prosource-of-mandeville","30.452967","-90.17825909999999"
"Floor Surplus","1683 O'Neal Ln","Baton Rouge","LA","70816","(225) 372-3645","","https://www.floorsurplus.net/","30.445414","-91.005515"
"Smith & Purvis Carpet One","1905 N Morrison Blvd","Hammond","LA","70401","(985) 878-5085","","https://www.smithandpurviscarpetonehammond.com/","30.518365","-90.4833467"
"Menzie Stone","16575 Commercial Ave","Baton Rouge","LA","70816","(225) 275-7819","","https://menziestone.com/","30.445209","-91.00009089999999"
"Menzie Flooring & Stone Nola","1525 Edwards Ave","Harahan","LA","70816","504-733-3070","","","29.963340","-90.1955309"
"Menzie Production Builders ","16575 Commercial Ave Bldg. 2 2nd Floor","Baton Rouge","LA","70816 ","225-275-7819","","","30.454902","-91.1660626"
"PS Distribution","16575 Commercial Ave Bldg. 3","Baton Rouge","LA","70816 ","225-774-8686","","","30.454902","-91.1660626"
"Tile For Less - Federal Way ","1610 S 344th ST ","Federal Way ","WA","98003","(253) 878-5224","federalway@tileforlessnw.com","https://tileforlessnw.com/federal-way/","47.293824","-122.3129578"
"Contract Furnishings Mart - North Seattle","953 N 128th ST","Seattle","WA","98133","(206) 805-2709","dom.berryhill@cfmfloors.com","https://cfmfloors.com/north-seattle-wa/","47.722024","-122.3457891"
"Contract Furnishings Mart - Everett","802 134th St SW #160","Everett ","WA","98204","(425) 329-1330","ashley.whitworth@cfmfloors.com","https://cfmfloors.com/everett-wa/","47.874668","-122.2444849"
"Contract Furnishings Mart - Fife","3600 Industry Dr E ","Fife","WA","98424","(253) 922-4648","sam.gallagher@cfmfloors.com","https://cfmfloors.com/fife-wa/","47.237195","-122.3790488"
"Contract Furnishings Mart - Kent","22230 84th Ave S","Kent","WA","98032","(253) 234-2040","david.halingstad@cfmfloors.com","https://cfmfloors.com/kent-wa/","47.401990","-122.2274345"
"Contract Furnishings Mart - Lacey","8719 Commerce Pl Dr NE ","Lacey","WA","98516","(206) 480-0950","michelle.baduria@cfmfloors.com","https://cfmfloors.com/lacey-wa/","47.069864","-122.755813"
"Contract Furnishings Mart - Redmond","14920 NE 95th ST Suite A","Redmond","WA","98052","(425) 861-7589","jeri.martin@cfmfloors.com","https://cfmfloors.com/redmond-wa/","47.687631","-122.1413643"
"Contract Furnishings Mart - Seattle","500 S Brandon ST","Seattle ","WA","98108","(206) 763-4500","jed.kittell@cfmfloors.com","https://cfmfloors.com/seattle-wa/","47.554425","-122.3280481"
"Contract Furnishings Mart - Tacoma","6305 6th Ave ","Tacoma","WA","98406","(253) 284-0020","tom.quinlan@cfmfloors.com","https://cfmfloors.com/tacoma-wa/","47.257370","-122.5212989"
"Mat Valley Tile & Stone (Anchorage)","661 E 48th Ave","Anchorage","AK","99503","(907) 644-8453","sales@matvalleytile.com","https://www.matvalleytile.com/","61.177516","-149.8715782"
"Mat Valley Tile & Stone (Wasilla)","3770 E Steven Dr","Wasilla","AK","99654","(907) 357-8484","sales@matvalleytile.com","https://www.matvalleytile.com/","61.583959","-149.354752"
"Contemporary Bathrooms","1235 40 Ave NE","Calgary","AB","T2E 6M9","(403) 291-2200","info@contemporarybath.ca","","51.088271","-114.0328456"
"Home Hardware Penticton","150 Fairview Place","Penticton","British Columbia","V2A 6A5","(250) 493-1233","customerservice@pentictonhhbc.com","https://pentictonhhbc.com/","49.480589","-119.5966661"
"Golden Valley Tile and Stone","202 NE 1P Road","Clinton","MO","64735","660.351.6230","","","38.368632","-93.7782689"
"Metex Supply Co, Regina","Unit 12 ?309 Adolph Drive","Regina","SK","S4N5S5","(306) 530-8012","metexregina@gmail.com","https://metexsupply.com/","50.468787","-104.5771278"
"EMCO Corporation","1000 Last Mile Drive, Unit 1","Ottawa","ON","K1G 6Y1","613-824-6091","afortin@emcoltd.com","https://emco.ca/stores/emco-ottawa/","45.381849","-75.5886797"
"Standard Paint and Flooring","610 S Main Street","Ellensburg","WA","98926","(509) 962-2551","j.jenkins@standardpaintandflooring.com","https://www.standardpaintandflooring.com/","46.986329","-120.547708"
"Ziggy? Home Improvement (Spokane)","620 E Holland Ave","Spokane","WA","99218","(509) 467-4958","","https://ziggys.com/","47.742918","-117.3992009"
"Ziggy? Home Improvement (Lewiston)","1109 Warner Ave","Lewiston","ID","83501","(208) 743-6900","","https://ziggys.com/","46.384918","-116.9736402"
"Ziggy? Home Improvement (Post Falls)","2121 N Highway 41","Post Falls","ID","83854","(208) 777-1955","","https://ziggys.com/","47.728140","-116.8976719"
"Housing Interiors of Mid Missouri llc"," 5307 E St Charles Rd","Columbia","OH","65201","(573) 474-9695","HOUSINGINTERIORSLLC@GMAIL.COM","https://www.housinginteriorsllc.com/","40.417287","-82.90712300000001"
"McLean Floorcoverings","4391 W. US Highway 421","Wilkesboro","NC","28697","(336) 568-0804","","https://www.mcleanfloors.com/","36.149169","-81.2401375"
"Accent Floor Coverings","4614 N HWY 763","Columbia","OH","65202","(573) 874-2832","","https://accentfc.com/","40.417287","-82.90712300000001"
"Daltile Lenexa","15380 W. 101st Terrace","Lenexa","KS","66219","913-599-2987","KansasCity.SSC106@Daltile.com","https://locations.daltile.com/ks/lenexa/106/","38.946888","-94.7641652"
"Tile This","1436 Cliff Road E","Burnsville","MN","55337","(952) 882-0436 ","Sales@TileThis.com","https://tilethis.com/","44.790722","-93.2550847"
"Paul Davis of Polk County","3306 Waterfield Rd","Lakeland","FL","33803","+1 863-644-7373","","https://polk-county.pauldavis.com/","28.003713","-81.8968033"
"Flooring Outlet Center","5310 South Florida Avenue","Lakeland","FL","33813","+1 863-644-9935","","http://flooringoutletcenterinc.com/","27.968842","-81.9632408"
"Floors 4 Pro's","2108 Whitfield Park Loop","Sarasota","FL","34243","+1 941-666-8640","","https://www.floors4pros.com/","27.420861","-82.53849459999999"
"Prosource Wichita","535 S Emerson St,","Wichita","KS","67209","(316) 223-7860","","https://www.prosourcewholesale.com/showrooms/ks-prosource-of-wichita","37.675336","-97.4306148"
"Goodlife Home Renovations","2541 W College Rd","Springfield","MO","65802","+14175015994","","https://www.goodlifehomerenovations.com/","37.209606","-93.3273597"
"Maline Tile  - Massachusettes","20 Reservoir Park Drive","Rockland","MA","02370","781.792.1780","SalesMA@maline.com","https://malinetile.com/","42.160363","-70.9046475"
"Maline Tile  - New Jersey","2 Doig Road","Wayne","NJ","07470","973.835.0244","SalesNJ@maline.com","https://malinetile.com/","40.934286","-74.271301"
"Emco Kitchener","500 Trillium Drive, Units 3-5","Kitchener","Ontario","N2R 1A7","519-894-7000","SalesNJ@maline.com","https://emco.ca/stores/emco-kitchener/","43.401762","-80.46958819999999"
"The Tile House, Pickering, ON","1095 Kingston Rd #3","Pickering","ON","L1V 1B5","(905) 839-1434","","https://www.hydroblok.com/find-a-dealer/the-tile-house-pickering/","43.826877","-79.09927359999999"
"EMCO Peterborough","774 Rye St, #11","Peterborough","ON","K9J 6W9","(705) 742-4251","","https://emco.ca/stores/emco-peterborough/","44.278604","-78.34459609999999"
"The Ensuite Winnipeg","1199 St James St","Winnipeg","MB","R3K 0K8","(204)925-8466","customerservice@theensuite.ca","http://www.theensuitewinnipeg.ca","49.900865","-97.1994034"
" EMCO Western Supplies","1199 St James St","Winnipeg","MB","R3K 0K8","(204)925-8711","605cust@emcoltd.com","http://www.theensuitewinnipeg.ca","49.900865","-97.1994034"
"Remarkable Concept","1550 NE Riddell Rd, STE 10","Bremerton","WA","98310","(204)925-8711","inforemarkableconcept@gmail.com","https://www.remarkable-concept.com/","47.607453","-122.6309858"
"Idaho Floors","1905 19th Avenue","Lewiston","Idaho","83501","(208) 743-0327","info@idahofloors.net","https://idahofloors.net/","46.401279","-117.0041447"
"Accent Flooring","4614 N HGWY 763","Columbia","MO","65202","573-874-2832","","https://accentfc.com/","38.998512","-92.32299259999999"
