[
{"type":"header","version":"5.1.2","comment":"Export to JSON plugin for PHPMyAdmin"},
{"type":"database","name":"hydroblok"},
{"type":"table","name":"wp_4hvj5k08aa_asl_stores","database":"hydroblok","data":
[
{"id":"1","title":"ARQ Enterprises Inc. Tile & Stone Resources","description":"not available","street":"12740 Danielson Ct. Ste. D","city":"Poway","state":"CA","postal_code":"92064","country":"223","lat":"32.9414599","lng":"-117.0468914","phone":"1-858-486-1212","fax":"","email":"","website":"https:\/\/www.hydroblok.com\/find-a-dealer\/arq-enterprises-inc-tile-stone-resources\/","description_2":"","logo_id":"0","marker_id":"1","is_disabled":"0","open_hours":"{\"mon\":\"0\",\"tue\":\"0\",\"wed\":\"0\",\"thu\":\"0\",\"fri\":\"0\",\"sat\":\"0\",\"sun\":\"0\"}","created_on":"2020-11-04 17:02:34","updated_on":"2022-02-19 22:21:13","ordr":"0","featured":null,"brand":null,"product":null,"pending":null,"slug":"arq-enterprises-inc-tile-stone-resources-poway","custom":null},
{"id":"6","title":"Daltile Bend","description":"not available","street":"545 SE Bridgeford Blvd.","city":"Bend","state":"OR","postal_code":"97702","country":"223","lat":"44.0453764","lng":"-121.2904147","phone":"541-317-9301","fax":"","email":"","website":"https:\/\/www.hydroblok.com\/find-a-dealer\/daltile-bend\/","description_2":"","logo_id":"0","marker_id":"1","is_disabled":"0","open_hours":"{\"mon\":\"0\",\"tue\":\"0\",\"wed\":\"0\",\"thu\":\"0\",\"fri\":\"0\",\"sat\":\"0\",\"sun\":\"0\"}","created_on":"2020-11-04 17:02:34","updated_on":"2022-02-19 04:52:46","ordr":"0","featured":null,"brand":null,"product":null,"pending":null,"slug":"daltile-bend-bend","custom":null},
{"id":"7","title":"Daltile Eugene","description":"not available","street":"1471 Railroad Blvd. Unit # 1","city":"Eugene","state":"OR","postal_code":"97402","country":"223","lat":"44.0627299","lng":"-123.1159002","phone":"541-686-0217","fax":"","email":"","website":"https:\/\/www.hydroblok.com\/find-a-dealer\/daltile-eugene\/","description_2":"","logo_id":"0","marker_id":"1","is_disabled":"0","open_hours":"{\"mon\":\"0\",\"tue\":\"0\",\"wed\":\"0\",\"thu\":\"0\",\"fri\":\"0\",\"sat\":\"0\",\"sun\":\"0\"}","created_on":"2020-11-04 17:02:34","updated_on":"2022-02-19 04:52:13","ordr":"0","featured":null,"brand":null,"product":null,"pending":null,"slug":"daltile-eugene-eugene","custom":null},
{"id":"8","title":"Daltile Everett","description":"not available","street":"2525 West Casino Rd. Ste 8A","city":"Everett","state":"WA","postal_code":"98204","country":"223","lat":"47.9201044","lng":"-122.2688532","phone":"425-355-1645","fax":"","email":"","website":"https:\/\/www.hydroblok.com\/find-a-dealer\/daltile-everett\/","description_2":"","logo_id":"0","marker_id":"1","is_disabled":"0","open_hours":"{\"mon\":\"0\",\"tue\":\"0\",\"wed\":\"0\",\"thu\":\"0\",\"fri\":\"0\",\"sat\":\"0\",\"sun\":\"0\"}","created_on":"2020-11-04 17:02:34","updated_on":"2022-02-19 04:42:41","ordr":"0","featured":null,"brand":null,"product":null,"pending":null,"slug":"daltile-everett-everett","custom":null},
{"id":"9","title":"Daltile Lakewood","description":"not available","street":"4215 95th Street SW - Suite A","city":"Lakewood","state":"WA","postal_code":"98499","country":"223","lat":"47.1710255","lng":"-122.4931694","phone":"253-581-1130","fax":"","email":"","website":"https:\/\/www.hydroblok.com\/find-a-dealer\/daltile-lakewood\/","description_2":"","logo_id":"0","marker_id":"1","is_disabled":"0","open_hours":"{\"mon\":\"0\",\"tue\":\"0\",\"wed\":\"0\",\"thu\":\"0\",\"fri\":\"0\",\"sat\":\"0\",\"sun\":\"0\"}","created_on":"2020-11-04 17:02:34","updated_on":"2022-02-19 04:49:43","ordr":"0","featured":null,"brand":null,"product":null,"pending":null,"slug":"daltile-lakewood-lakewood","custom":null},
{"id":"10","title":"Daltile Las Vegas","description":"not available","street":"3455 W. Sunset Rd. Ste. G","city":"Las Vegas","state":"NV","postal_code":"89118","country":"223","lat":"36.07138","lng":"-115.1862674","phone":"702-361-6873","fax":"","email":"","website":"https:\/\/www.hydroblok.com\/find-a-dealer\/daltile-las-vegas\/","description_2":"","logo_id":"0","marker_id":"1","is_disabled":"0","open_hours":"{\"mon\":\"0\",\"tue\":\"0\",\"wed\":\"0\",\"thu\":\"0\",\"fri\":\"0\",\"sat\":\"0\",\"sun\":\"0\"}","created_on":"2020-11-04 17:02:34","updated_on":"2022-02-19 22:31:06","ordr":"0","featured":null,"brand":null,"product":null,"pending":null,"slug":"daltile-las-vegas-las-vegas","custom":null},
{"id":"11","title":"Daltile Ontario","description":"not available","street":"3624 E. La Salle","city":"Ontario","state":"CA","postal_code":"91761","country":"223","lat":"34.0513947","lng":"-117.5710199","phone":"","fax":"","email":"","website":"https:\/\/www.hydroblok.com\/find-a-dealer\/daltile-ontario\/","description_2":"","logo_id":"0","marker_id":"1","is_disabled":"0","open_hours":"{\"mon\":\"0\",\"tue\":\"0\",\"wed\":\"0\",\"thu\":\"0\",\"fri\":\"0\",\"sat\":\"0\",\"sun\":\"0\"}","created_on":"2020-11-04 17:02:34","updated_on":"2022-02-19 22:06:38","ordr":"0","featured":null,"brand":null,"product":null,"pending":null,"slug":"daltile-ontario-ontario","custom":null},
{"id":"12","title":"Daltile Palm Desert","description":"not available","street":"77-583 El Duna Ct, Ste A","city":"Palm Desert","state":"CA","postal_code":"92211","country":"223","lat":"33.767608","lng":"-116.3095427","phone":"760-772-1298","fax":"","email":"","website":"https:\/\/www.hydroblok.com\/find-a-dealer\/daltile-palm-desert\/","description_2":"","logo_id":"0","marker_id":"1","is_disabled":"0","open_hours":"{\"mon\":\"0\",\"tue\":\"0\",\"wed\":\"0\",\"thu\":\"0\",\"fri\":\"0\",\"sat\":\"0\",\"sun\":\"0\"}","created_on":"2020-11-04 17:02:34","updated_on":"2022-02-19 22:20:32","ordr":"0","featured":null,"brand":null,"product":null,"pending":null,"slug":"daltile-palm-desert-palm-desert","custom":null},
{"id":"13","title":"Daltile Portland","description":"not available","street":"3240 N.W. 29th Ave.","city":"Portland","state":"OR","postal_code":"97210","country":"223","lat":"45.5457093","lng":"-122.7103039","phone":"503-236-4585","fax":"","email":"","website":"https:\/\/www.hydroblok.com\/find-a-dealer\/daltile-portland\/","description_2":"","logo_id":"0","marker_id":"1","is_disabled":"0","open_hours":"{\"mon\":\"0\",\"tue\":\"0\",\"wed\":\"0\",\"thu\":\"0\",\"fri\":\"0\",\"sat\":\"0\",\"sun\":\"0\"}","created_on":"2020-11-04 17:02:34","updated_on":"2022-02-19 04:51:43","ordr":"0","featured":null,"brand":null,"product":null,"pending":null,"slug":"daltile-portland-portland","custom":null},
{"id":"14","title":"Daltile Redlands","description":"not available","street":"2354 W. Lugonia Ave.","city":"Redlands","state":"CA","postal_code":"92374","country":"223","lat":"34.070681","lng":"-117.238097","phone":"909-796-3466","fax":"","email":"","website":"https:\/\/www.hydroblok.com\/find-a-dealer\/daltile-redlands\/","description_2":"","logo_id":"0","marker_id":"1","is_disabled":"0","open_hours":"{\"mon\":\"0\",\"tue\":\"0\",\"wed\":\"0\",\"thu\":\"0\",\"fri\":\"0\",\"sat\":\"0\",\"sun\":\"0\"}","created_on":"2020-11-04 17:02:34","updated_on":"2022-02-19 22:20:10","ordr":"0","featured":null,"brand":null,"product":null,"pending":null,"slug":"daltile-redlands-redlands","custom":null},
{"id":"15","title":"Daltile San Leandro","description":"not available","street":"2311 Merced Street","city":"San Leandro","state":"CA","postal_code":"94577","country":"223","lat":"37.7070005","lng":"-122.1704363","phone":"510-895-9006","fax":"","email":"","website":"https:\/\/www.hydroblok.com\/find-a-dealer\/daltile-san-leandro\/","description_2":"","logo_id":"0","marker_id":"0","is_disabled":"0","open_hours":"{\"mon\":\"0\",\"tue\":\"0\",\"wed\":\"0\",\"thu\":\"0\",\"fri\":\"0\",\"sat\":\"0\",\"sun\":\"0\"}","created_on":"2020-11-04 17:02:34","updated_on":"2022-02-19 05:02:15","ordr":"0","featured":null,"brand":null,"product":null,"pending":null,"slug":"daltile-san-leandro-san-leandro","custom":null},
{"id":"16","title":"Daltile Seattle","description":"not available","street":"540 S. Front St.","city":"Seattle","state":"WA","postal_code":"98108","country":"223","lat":"47.5484649","lng":"-122.3270445","phone":"206-762-6620","fax":"","email":"","website":"https:\/\/www.hydroblok.com\/find-a-dealer\/daltile-seattle\/","description_2":"","logo_id":"0","marker_id":"1","is_disabled":"0","open_hours":"{\"mon\":\"0\",\"tue\":\"0\",\"wed\":\"0\",\"thu\":\"0\",\"fri\":\"0\",\"sat\":\"0\",\"sun\":\"0\"}","created_on":"2020-11-04 17:02:34","updated_on":"2022-02-19 04:47:29","ordr":"0","featured":null,"brand":null,"product":null,"pending":null,"slug":"daltile-seattle-seattle","custom":null},
{"id":"17","title":"Daltile Spokane","description":"not available","street":"East 4000 Broadway","city":"Spokane","state":"WA","postal_code":"99202","country":"223","lat":"47.6639002","lng":"-117.3511104","phone":"509-534-0202","fax":"","email":"","website":"https:\/\/www.hydroblok.com\/find-a-dealer\/daltile-spokane\/","description_2":"","logo_id":"0","marker_id":"1","is_disabled":"0","open_hours":"{\"mon\":\"0\",\"tue\":\"0\",\"wed\":\"0\",\"thu\":\"0\",\"fri\":\"0\",\"sat\":\"0\",\"sun\":\"0\"}","created_on":"2020-11-04 17:02:34","updated_on":"2022-02-21 03:30:45","ordr":"0","featured":null,"brand":null,"product":null,"pending":null,"slug":"daltile-spokane-spokane","custom":null},
{"id":"18","title":"Daltile Torrance","description":"not available","street":"18740 Crenshaw Blvd.","city":"Torrance","state":"CA","postal_code":"90504","country":"223","lat":"33.8603227","lng":"-118.3265823","phone":"310-323-4632","fax":"","email":"","website":"https:\/\/www.hydroblok.com\/find-a-dealer\/daltile-torrance\/","description_2":"","logo_id":"0","marker_id":"1","is_disabled":"0","open_hours":"{\"mon\":\"0\",\"tue\":\"0\",\"wed\":\"0\",\"thu\":\"0\",\"fri\":\"0\",\"sat\":\"0\",\"sun\":\"0\"}","created_on":"2020-11-04 17:02:34","updated_on":"2022-02-19 05:03:41","ordr":"0","featured":null,"brand":null,"product":null,"pending":null,"slug":"daltile-torrance-torrance","custom":null},
{"id":"19","title":"Daltile Van Nuys","description":"not available","street":"16201 Stagg St.","city":"Van Nuys","state":"CA","postal_code":"91406","country":"223","lat":"34.2135115","lng":"-118.4865522","phone":"818-787-3224","fax":"","email":"","website":"https:\/\/www.hydroblok.com\/find-a-dealer\/daltile-van-nuys\/","description_2":"","logo_id":"0","marker_id":"1","is_disabled":"0","open_hours":"{\"mon\":\"0\",\"tue\":\"0\",\"wed\":\"0\",\"thu\":\"0\",\"fri\":\"0\",\"sat\":\"0\",\"sun\":\"0\"}","created_on":"2020-11-04 17:02:34","updated_on":"2022-02-19 05:03:15","ordr":"0","featured":null,"brand":null,"product":null,"pending":null,"slug":"daltile-van-nuys-van-nuys","custom":null},
{"id":"23","title":"HPM Building Supply, Hilo HI","description":"not available","street":"380 Kanoelehua Avenue","city":"Hilo","state":"HI","postal_code":"96720","country":"223","lat":"19.7173297","lng":"-155.0650201","phone":"(808) 935-0875","fax":"","email":"","website":"https:\/\/www.hydroblok.com\/find-a-dealer\/hpm-building-supply-hilo-home-design-center\/","description_2":"","logo_id":"0","marker_id":"1","is_disabled":"0","open_hours":"{\"mon\":\"0\",\"tue\":\"0\",\"wed\":\"0\",\"thu\":\"0\",\"fri\":\"0\",\"sat\":\"0\",\"sun\":\"0\"}","created_on":"2020-11-04 17:02:34","updated_on":"2022-02-21 20:07:15","ordr":"0","featured":null,"brand":null,"product":null,"pending":null,"slug":"hpm-building-supply-hilo-hi-hilo","custom":null},
{"id":"24","title":"HPM Building Supply, Kailua-Kona HI","description":"not available","street":"74-5511 Luhia Street","city":"Kailua-Kona","state":"HI","postal_code":"96740","country":"223","lat":"19.6501971","lng":"-156.0028914","phone":"(808) 334-4200","fax":"","email":"","website":"https:\/\/www.hydroblok.com\/find-a-dealer\/hpm-building-supply-kona-retail-store-lumberyard\/","description_2":"","logo_id":"0","marker_id":"1","is_disabled":"0","open_hours":"{\"mon\":\"0\",\"tue\":\"0\",\"wed\":\"0\",\"thu\":\"0\",\"fri\":\"0\",\"sat\":\"0\",\"sun\":\"0\"}","created_on":"2020-11-04 17:02:34","updated_on":"2022-02-21 03:38:10","ordr":"0","featured":null,"brand":null,"product":null,"pending":null,"slug":"hpm-building-supply-kailua-kona-hi-kailua-kona","custom":null},
{"id":"25","title":"HPM Building Supply, Waimea HI","description":"not available","street":"64-1027 Mamalahoa Highway","city":"Kamuela","state":"HI","postal_code":"96743","country":"223","lat":"20.0246285","lng":"-155.6582429","phone":"(808) 885-6036","fax":"","email":"","website":"https:\/\/www.hydroblok.com\/find-a-dealer\/hpm-building-supply-waimea-retail-store-lumberyard\/","description_2":"","logo_id":"0","marker_id":"1","is_disabled":"0","open_hours":"{\"mon\":\"0\",\"tue\":\"0\",\"wed\":\"0\",\"thu\":\"0\",\"fri\":\"0\",\"sat\":\"0\",\"sun\":\"0\"}","created_on":"2020-11-04 17:02:34","updated_on":"2022-02-21 20:10:45","ordr":"0","featured":null,"brand":null,"product":null,"pending":null,"slug":"hpm-building-supply-waimea-hi-kamuela","custom":null},
{"id":"27","title":"Lake Interiors","description":"not available","street":"66 Hwy. 150","city":"Chelan","state":"WA","postal_code":"98816","country":"223","lat":"47.8339052","lng":"-119.9919665","phone":"(509) 682-2301","fax":null,"email":null,"website":"https:\/\/lakeinteriorschelan.com","description_2":null,"logo_id":"0","marker_id":"1","is_disabled":null,"open_hours":"{\"mon\":\"0\",\"tue\":\"0\",\"wed\":\"0\",\"thu\":\"0\",\"fri\":\"0\",\"sat\":\"0\",\"sun\":\"0\"}","created_on":"2020-11-04 17:02:34","updated_on":null,"ordr":null,"featured":null,"brand":null,"product":null,"pending":null,"slug":null,"custom":null},
{"id":"28","title":"Lynden Interiors","description":"not available","street":"2017 Front St","city":"Lynden","state":"WA","postal_code":"98264","country":"223","lat":"48.9386841","lng":"-122.4864651","phone":"360-354-4149","fax":"","email":"","website":"https:\/\/www.hydroblok.com\/find-a-dealer\/lynden-interiors\/","description_2":"","logo_id":"0","marker_id":"0","is_disabled":"0","open_hours":"{\"mon\":\"0\",\"tue\":\"0\",\"wed\":\"0\",\"thu\":\"0\",\"fri\":\"0\",\"sat\":\"0\",\"sun\":\"0\"}","created_on":"2020-11-04 17:02:34","updated_on":"2022-02-19 04:38:49","ordr":"0","featured":null,"brand":null,"product":null,"pending":null,"slug":"lynden-interiors-lynden","custom":null},
{"id":"29","title":"Marazzi Tile & Stone","description":"not available","street":"9020 Activity Road Ste B","city":"San Diego","state":"CA","postal_code":"92126","country":"223","lat":"32.8964471","lng":"-117.1326091","phone":"858.547.8453","fax":"","email":"","website":"https:\/\/www.hydroblok.com\/find-a-dealer\/marazzi-tile-stone\/","description_2":"","logo_id":"0","marker_id":"0","is_disabled":"0","open_hours":"{\"mon\":\"0\",\"tue\":\"0\",\"wed\":\"0\",\"thu\":\"0\",\"fri\":\"0\",\"sat\":\"0\",\"sun\":\"0\"}","created_on":"2020-11-04 17:02:34","updated_on":"2022-02-19 22:22:44","ordr":"0","featured":null,"brand":null,"product":null,"pending":null,"slug":"marazzi-tile-stone-san-diego","custom":null},
{"id":"30","title":"Sams Flooring Supplies Abbotsford","description":"not available","street":"#103 30755 Simpson Rd.","city":"Abbostford","state":"BC","postal_code":"V2T 6X4","country":"38","lat":"49.046398","lng":"-122.3706777","phone":"604-850-6477","fax":"","email":"","website":"https:\/\/www.hydroblok.com\/find-a-dealer\/sams-flooring-supplies-abbotsford\/","description_2":"","logo_id":"0","marker_id":"1","is_disabled":"0","open_hours":"{\"mon\":\"0\",\"tue\":\"0\",\"wed\":\"0\",\"thu\":\"0\",\"fri\":\"0\",\"sat\":\"0\",\"sun\":\"0\"}","created_on":"2020-11-04 17:02:34","updated_on":"2022-02-19 04:34:56","ordr":"0","featured":null,"brand":null,"product":null,"pending":null,"slug":"sams-flooring-supplies-abbotsford-abbostford","custom":null},
{"id":"31","title":"Sams Flooring Supplies Chilliwack","description":"not available","street":"#B 8850 Young Rd.","city":"Chilliwack","state":"BC","postal_code":"V2P 4P5","country":"38","lat":"49.162958","lng":"-121.952092","phone":"604-795-6521","fax":"","email":"","website":"https:\/\/www.hydroblok.com\/find-a-dealer\/sams-flooring-supplies-chilliwack\/","description_2":"","logo_id":"0","marker_id":"1","is_disabled":"0","open_hours":"{\"mon\":\"0\",\"tue\":\"0\",\"wed\":\"0\",\"thu\":\"0\",\"fri\":\"0\",\"sat\":\"0\",\"sun\":\"0\"}","created_on":"2020-11-04 17:02:34","updated_on":"2022-01-18 18:57:35","ordr":"0","featured":null,"brand":null,"product":null,"pending":null,"slug":"sams-flooring-supplies-chilliwack-chilliwack","custom":null},
{"id":"32","title":"Sams Flooring Supplies Kelowna","description":"not available","street":"#100 1516 Keehn Rd.","city":"Kelowna","state":"BC","postal_code":"V1X 5T3","country":"38","lat":"49.8911203","lng":"-119.4155411","phone":"250-860-8886","fax":"","email":"","website":"https:\/\/www.hydroblok.com\/find-a-dealer\/sams-flooring-supplies-kelowna\/","description_2":"","logo_id":"0","marker_id":"1","is_disabled":"0","open_hours":"{\"mon\":\"0\",\"tue\":\"0\",\"wed\":\"0\",\"thu\":\"0\",\"fri\":\"0\",\"sat\":\"0\",\"sun\":\"0\"}","created_on":"2020-11-04 17:02:34","updated_on":"2022-02-19 04:35:34","ordr":"0","featured":null,"brand":null,"product":null,"pending":null,"slug":"sams-flooring-supplies-kelowna-kelowna","custom":null},
{"id":"33","title":"Sams Flooring Supplies Langley","description":"not available","street":"#8 20701 Langley Bypass","city":"Langley","state":"BC","postal_code":"V3A 5E8","country":"38","lat":"49.1132391","lng":"-122.6490234","phone":"604-530-2949","fax":"","email":"","website":"https:\/\/www.hydroblok.com\/find-a-dealer\/sams-flooring-supplies-langley\/","description_2":"","logo_id":"0","marker_id":"1","is_disabled":"0","open_hours":"{\"mon\":\"0\",\"tue\":\"0\",\"wed\":\"0\",\"thu\":\"0\",\"fri\":\"0\",\"sat\":\"0\",\"sun\":\"0\"}","created_on":"2020-11-04 17:02:34","updated_on":"2022-02-19 04:33:50","ordr":"0","featured":null,"brand":null,"product":null,"pending":null,"slug":"sams-flooring-supplies-langley-langley","custom":null},
{"id":"34","title":"Sams Flooring Supplies Surrey","description":"not available","street":"#227 12448 82nd Ave. ","city":"Surrey","state":"BC","postal_code":"V3W 2E9","country":"38","lat":"49.1510416","lng":"-122.8778542","phone":"604-594-9888","fax":"","email":"","website":"https:\/\/www.hydroblok.com\/find-a-dealer\/sams-flooring-supplies-surrey\/","description_2":"","logo_id":"0","marker_id":"1","is_disabled":"0","open_hours":"{\"mon\":\"0\",\"tue\":\"0\",\"wed\":\"0\",\"thu\":\"0\",\"fri\":\"0\",\"sat\":\"0\",\"sun\":\"0\"}","created_on":"2020-11-04 17:02:34","updated_on":"2022-01-18 18:59:12","ordr":"0","featured":null,"brand":null,"product":null,"pending":null,"slug":"sams-flooring-supplies-surrey-surrey","custom":null},
{"id":"35","title":"Sams Flooring Supplies Vernon","description":"not available","street":"#2 4601 23rd St.","city":"Vernon","state":"BC","postal_code":"V1T 4K7","country":"38","lat":"50.2788269","lng":"-119.2609731","phone":"250-260-7075","fax":"","email":"","website":"https:\/\/www.hydroblok.com\/find-a-dealer\/sams-flooring-supplies-vernon\/","description_2":"","logo_id":"0","marker_id":"0","is_disabled":"0","open_hours":"{\"mon\":\"0\",\"tue\":\"0\",\"wed\":\"0\",\"thu\":\"0\",\"fri\":\"0\",\"sat\":\"0\",\"sun\":\"0\"}","created_on":"2020-11-04 17:02:34","updated_on":"2022-02-19 04:36:20","ordr":"0","featured":null,"brand":null,"product":null,"pending":null,"slug":"sams-flooring-supplies-vernon-vernon","custom":null},
{"id":"36","title":"Seattle Glass Block","description":"not available","street":"6029 238th Street SE","city":"Woodinville","state":"WA","postal_code":"98072","country":"223","lat":"47.7828373","lng":"-122.1528561","phone":"425-483-9977","fax":"","email":"","website":"https:\/\/www.hydroblok.com\/find-a-dealer\/seattle-glass-block\/","description_2":"","logo_id":"0","marker_id":"1","is_disabled":"0","open_hours":"{\"mon\":\"0\",\"tue\":\"0\",\"wed\":\"0\",\"thu\":\"0\",\"fri\":\"0\",\"sat\":\"0\",\"sun\":\"0\"}","created_on":"2020-11-04 17:02:34","updated_on":"2022-02-19 04:45:15","ordr":"0","featured":null,"brand":null,"product":null,"pending":null,"slug":"seattle-glass-block-woodinville","custom":null},
{"id":"37","title":"Sierra Glass Block","description":"not available","street":"8230 Belvedere Ave., Ste. E","city":"Sacramento","state":"CA","postal_code":"95826","country":"223","lat":"38.5375525","lng":"-121.4026111","phone":"916-455-5507","fax":"","email":"","website":"https:\/\/www.hydroblok.com\/find-a-dealer\/sierra-glass-block\/","description_2":"","logo_id":"0","marker_id":"0","is_disabled":"0","open_hours":"{\"mon\":\"0\",\"tue\":\"0\",\"wed\":\"0\",\"thu\":\"0\",\"fri\":\"0\",\"sat\":\"0\",\"sun\":\"0\"}","created_on":"2020-11-04 17:02:34","updated_on":"2022-02-19 04:57:26","ordr":"0","featured":null,"brand":null,"product":null,"pending":null,"slug":"sierra-glass-block-sacramento","custom":null},
{"id":"39","title":"Tile for Less Bothell","description":"not available","street":"19400 Bothell Everett Hwy","city":"Bothell","state":"WA","postal_code":"98012","country":"223","lat":"47.82146400000001","lng":"-122.2079403","phone":"425-415-6600","fax":"","email":"","website":"https:\/\/www.hydroblok.com\/find-a-dealer\/tile-for-less-bothell\/","description_2":"","logo_id":"0","marker_id":"1","is_disabled":"1","open_hours":"{\"mon\":\"0\",\"tue\":\"0\",\"wed\":\"0\",\"thu\":\"0\",\"fri\":\"0\",\"sat\":\"0\",\"sun\":\"0\"}","created_on":"2020-11-04 17:02:34","updated_on":"2023-11-17 16:22:55","ordr":"0","featured":null,"brand":null,"product":null,"pending":null,"slug":"tile-for-less-bothell-bothell","custom":null},
{"id":"40","title":"Tile for Less Seattle","description":"not available","street":"2440 First Ave. S","city":"Seattle","state":"WA","postal_code":"98134","country":"223","lat":"47.5806688","lng":"-122.3338905","phone":"(206) 489-4504","fax":"","email":"seattle@tileforlessnw.com","website":"https:\/\/tileforlessnw.com\/","description_2":"","logo_id":"0","marker_id":"1","is_disabled":"0","open_hours":"{\"mon\":\"0\",\"tue\":\"0\",\"wed\":\"0\",\"thu\":\"0\",\"fri\":\"0\",\"sat\":\"0\",\"sun\":\"0\"}","created_on":"2020-11-04 17:02:34","updated_on":"2023-11-17 16:27:13","ordr":"0","featured":null,"brand":null,"product":null,"pending":null,"slug":"tile-for-less-seattle-seattle","custom":null},
{"id":"41","title":"Tile for Less Spokane Valley","description":"not available","street":"5414 E. Sprague","city":"Spokane Valley","state":"WA","postal_code":"99212","country":"223","lat":"47.6565486","lng":"-117.3316352","phone":"509.315.5176","fax":"","email":"","website":"https:\/\/www.hydroblok.com\/find-a-dealer\/tile-for-less-spokane-valley\/","description_2":"","logo_id":"0","marker_id":"1","is_disabled":"0","open_hours":"{\"mon\":\"0\",\"tue\":\"0\",\"wed\":\"0\",\"thu\":\"0\",\"fri\":\"0\",\"sat\":\"0\",\"sun\":\"0\"}","created_on":"2020-11-04 17:02:34","updated_on":"2022-02-21 03:33:22","ordr":"0","featured":null,"brand":null,"product":null,"pending":null,"slug":"tile-for-less-spokane-valley-spokane-valley","custom":null},
{"id":"42","title":"Tile Lines","description":"not available","street":"1531 Central Ave S","city":"Kent","state":"WA","postal_code":"98108","country":"223","lat":"47.3656915","lng":"-122.2303324","phone":"253-872-0449","fax":"","email":"","website":"https:\/\/www.hydroblok.com\/find-a-dealer\/tile-lines\/","description_2":"","logo_id":"0","marker_id":"1","is_disabled":"0","open_hours":"{\"mon\":\"0\",\"tue\":\"0\",\"wed\":\"0\",\"thu\":\"0\",\"fri\":\"0\",\"sat\":\"0\",\"sun\":\"0\"}","created_on":"2020-11-04 17:02:34","updated_on":"2022-02-19 04:49:11","ordr":"0","featured":null,"brand":null,"product":null,"pending":null,"slug":"tile-lines-kent","custom":null},
{"id":"43","title":"United Tile Portland","description":"not available","street":"3145 NW Yean Ave.","city":"Portland","state":"OR","postal_code":"97210","country":"223","lat":"45.5435502","lng":"-122.7021864","phone":"503-231-4959","fax":"","email":"","website":"https:\/\/www.hydroblok.com\/find-a-dealer\/united-tile-portland\/","description_2":"","logo_id":"0","marker_id":"1","is_disabled":"0","open_hours":"{\"mon\":\"0\",\"tue\":\"0\",\"wed\":\"0\",\"thu\":\"0\",\"fri\":\"0\",\"sat\":\"0\",\"sun\":\"0\"}","created_on":"2020-11-04 17:02:34","updated_on":"2022-02-19 04:50:44","ordr":"0","featured":null,"brand":null,"product":null,"pending":null,"slug":"united-tile-portland-portland","custom":null},
{"id":"44","title":"United Tile Seattle","description":"not available","street":"750 S. Michigan Street","city":"Seattle","state":"WA","postal_code":"98108","country":"223","lat":"47.5473355","lng":"-122.3242706","phone":"425-251-5290","fax":"","email":"","website":"https:\/\/www.hydroblok.com\/find-a-dealer\/united-tile-seattle\/","description_2":"","logo_id":"0","marker_id":"1","is_disabled":"0","open_hours":"{\"mon\":\"0\",\"tue\":\"0\",\"wed\":\"0\",\"thu\":\"0\",\"fri\":\"0\",\"sat\":\"0\",\"sun\":\"0\"}","created_on":"2020-11-04 17:02:34","updated_on":"2022-02-19 04:48:03","ordr":"0","featured":null,"brand":null,"product":null,"pending":null,"slug":"united-tile-seattle-seattle","custom":null},
{"id":"45","title":"United Tile Spokane","description":"not available","street":"622 East Second","city":"Spokane","state":"WA","postal_code":"99202","country":"223","lat":"47.6543488","lng":"-117.4010589","phone":"509-466-4478","fax":"","email":"","website":"https:\/\/www.hydroblok.com\/find-a-dealer\/united-tile-spokane\/","description_2":"","logo_id":"0","marker_id":"1","is_disabled":"0","open_hours":"{\"mon\":\"0\",\"tue\":\"0\",\"wed\":\"0\",\"thu\":\"0\",\"fri\":\"0\",\"sat\":\"0\",\"sun\":\"0\"}","created_on":"2020-11-04 17:02:34","updated_on":"2022-02-21 03:30:06","ordr":"0","featured":null,"brand":null,"product":null,"pending":null,"slug":"united-tile-spokane-spokane","custom":null},
{"id":"46","title":"BASSANO BUILDING CENTER (TIMBER MART)","description":"not available","street":"417 - 11th Street Box 368","city":"Bassano","state":"AB","postal_code":"T0J 0B0","country":"38","lat":"50.7894791","lng":"-112.4686447","phone":"403-641-4000","fax":"","email":"bassbuilding@eidnet.org","website":"https:\/\/www.timbermart.ca\/en\/stores\/bassano-building-center-ltd","description_2":"","logo_id":"0","marker_id":"0","is_disabled":"1","open_hours":"{\"mon\":\"0\",\"tue\":\"0\",\"wed\":\"0\",\"thu\":\"0\",\"fri\":\"0\",\"sat\":\"0\",\"sun\":\"0\"}","created_on":"2020-11-04 17:02:34","updated_on":"2022-01-07 04:24:40","ordr":"0","featured":null,"brand":null,"product":null,"pending":null,"slug":"bassano-building-center-timber-mart-bassano","custom":null},
{"id":"60","title":"Heart Mountain Home","description":"not available","street":"1659 E Main St","city":"Freeland","state":"WA","postal_code":"98249","country":"223","lat":"48.0098553","lng":"-122.525418","phone":"360-221-1124","fax":"","email":"","website":"https:\/\/www.hydroblok.com\/find-a-dealer\/heart-mountain-home\/","description_2":"","logo_id":"0","marker_id":"0","is_disabled":"0","open_hours":"{\"mon\":\"0\",\"tue\":\"0\",\"wed\":\"0\",\"thu\":\"0\",\"fri\":\"0\",\"sat\":\"0\",\"sun\":\"0\"}","created_on":"2020-11-04 17:02:34","updated_on":"2023-05-26 01:52:55","ordr":"0","featured":null,"brand":null,"product":null,"pending":null,"slug":"heart-mountain-home-freeland","custom":null},
{"id":"61","title":"Daltile Anaheim ","description":"not available","street":"1600 S. Page St.","city":"Anaheim","state":"CA","postal_code":"92806","country":"223","lat":"33.8080491","lng":"-117.8863593","phone":"714.634.2546","fax":"","email":"","website":"https:\/\/www.hydroblok.com\/find-a-dealer\/daltile-anaheim\/","description_2":"","logo_id":"0","marker_id":"0","is_disabled":"0","open_hours":"{\"mon\":\"0\",\"tue\":\"0\",\"wed\":\"0\",\"thu\":\"0\",\"fri\":\"0\",\"sat\":\"0\",\"sun\":\"0\"}","created_on":"2020-11-04 17:02:34","updated_on":"2022-02-19 05:06:05","ordr":"0","featured":null,"brand":null,"product":null,"pending":null,"slug":"daltile-anaheim-anaheim","custom":null},
{"id":"62","title":"Daltile Sacramento","description":"","street":"9971 Horn Road","city":"Sacramento","state":"CA","postal_code":"95827","country":"223","lat":"38.57789560000001","lng":"-121.3224925","phone":"(916) 364-0741","fax":"","email":"","website":"https:\/\/www.hydroblok.com\/find-a-dealer\/daltile-sacramento\/","description_2":"","logo_id":"0","marker_id":"0","is_disabled":"0","open_hours":"{\"mon\":[\"07:00 AM - 04:00 PM\"],\"tue\":[\"07:00 AM - 04:00 PM\"],\"wed\":[\"07:00 AM - 04:00 PM\"],\"thu\":[\"07:00 AM - 04:00 PM\"],\"fri\":[\"07:00 AM - 04:00 PM\"],\"sat\":[\"09:00 AM - 02:00 PM\"],\"sun\":\"0\"}","created_on":"2020-11-04 17:02:34","updated_on":"2022-02-19 04:55:49","ordr":"0","featured":null,"brand":null,"product":null,"pending":null,"slug":"daltile-sacramento-sacramento","custom":null},
{"id":"63","title":"American Olean \/ Marazzi Tile & Stone","description":"not available","street":"1955 Davis St","city":"San Leandro","state":"CA","postal_code":"94577","country":"223","lat":"37.7134819","lng":"-122.1817556","phone":"510-394-9800","fax":"","email":"","website":"https:\/\/www.hydroblok.com\/find-a-dealer\/american-olean-marazzi-tile-stone-2\/","description_2":"","logo_id":"0","marker_id":"0","is_disabled":"0","open_hours":"{\"mon\":\"0\",\"tue\":\"0\",\"wed\":\"0\",\"thu\":\"0\",\"fri\":\"0\",\"sat\":\"0\",\"sun\":\"0\"}","created_on":"2020-11-04 17:02:34","updated_on":"2022-02-19 05:01:34","ordr":"0","featured":null,"brand":null,"product":null,"pending":null,"slug":"american-olean-marazzi-tile-stone-san-leandro","custom":null},
{"id":"64","title":"American Olean \/ Marazzi Tile & Stone","description":"not available","street":"4935 Southfront Rd","city":"Livermore","state":"CA","postal_code":"94551","country":"223","lat":"37.7002343","lng":"-121.7393158","phone":"925-449-0338","fax":"","email":"","website":"https:\/\/www.hydroblok.com\/find-a-dealer\/american-olean-marazzi-tile-stone\/","description_2":"","logo_id":"0","marker_id":"0","is_disabled":"0","open_hours":"{\"mon\":\"0\",\"tue\":\"0\",\"wed\":\"0\",\"thu\":\"0\",\"fri\":\"0\",\"sat\":\"0\",\"sun\":\"0\"}","created_on":"2020-11-04 17:02:34","updated_on":"2022-02-19 05:01:04","ordr":"0","featured":null,"brand":null,"product":null,"pending":null,"slug":"american-olean-marazzi-tile-stone-livermore","custom":null},
{"id":"65","title":"Esta Aqui Tile","description":"not available","street":"2124 Grant Street","city":"Bellingham","state":"WA","postal_code":"98226","country":"223","lat":"48.7585071","lng":"-122.4688015","phone":"(360) 734-7374","fax":"","email":"","website":"https:\/\/www.hydroblok.com\/find-a-dealer\/Esta-Aqui-tile\/","description_2":"","logo_id":"0","marker_id":"0","is_disabled":"0","open_hours":"{\"mon\":\"0\",\"tue\":\"0\",\"wed\":\"0\",\"thu\":\"0\",\"fri\":\"0\",\"sat\":\"0\",\"sun\":\"0\"}","created_on":"2020-11-04 17:02:34","updated_on":"2022-02-19 04:39:40","ordr":"0","featured":null,"brand":null,"product":null,"pending":null,"slug":"esta-aqui-tile-bellingham","custom":null},
{"id":"66","title":"Daltile Boise","description":"not available","street":"11510 West Executive Drive","city":"Boise","state":"ID","postal_code":"83713","country":"223","lat":"43.6098803","lng":"-116.3264848","phone":"(208) 375-4466","fax":"","email":"","website":"https:\/\/www.hydroblok.com\/find-a-dealer\/daltile-boise\/","description_2":"","logo_id":"0","marker_id":"0","is_disabled":"0","open_hours":"{\"mon\":\"0\",\"tue\":\"0\",\"wed\":\"0\",\"thu\":\"0\",\"fri\":\"0\",\"sat\":\"0\",\"sun\":\"0\"}","created_on":"2020-11-04 17:02:34","updated_on":"2022-02-21 03:12:48","ordr":"0","featured":null,"brand":null,"product":null,"pending":null,"slug":"daltile-boise-boise","custom":null},
{"id":"67","title":"Emser Tile Boise","description":"not available","street":"12050 West Franklin Road","city":"Boise","state":"ID","postal_code":"83709","country":"223","lat":"43.6049343","lng":"-116.3142382","phone":"(208) 375-2020","fax":"","email":"","website":"https:\/\/www.hydroblok.com\/find-a-dealer\/emser-tile-boise\/","description_2":"","logo_id":"0","marker_id":"0","is_disabled":"0","open_hours":"{\"mon\":\"0\",\"tue\":\"0\",\"wed\":\"0\",\"thu\":\"0\",\"fri\":\"0\",\"sat\":\"0\",\"sun\":\"0\"}","created_on":"2020-11-04 17:02:34","updated_on":"2022-02-21 03:10:29","ordr":"0","featured":null,"brand":null,"product":null,"pending":null,"slug":"emser-tile-boise-boise","custom":null},
{"id":"68","title":"American Olean \/ Marazzi Phoenix","description":"not available","street":"2115 S 11th Ave Suite 170","city":"Phoenix","state":"AZ","postal_code":"85007","country":"223","lat":"33.4285151","lng":"-112.0854559","phone":"(602) 252-5357","fax":"","email":"","website":"https:\/\/www.hydroblok.com\/find-a-dealer\/american-olean-marazzi-phoenix\/","description_2":"","logo_id":"0","marker_id":"0","is_disabled":"0","open_hours":"{\"mon\":\"0\",\"tue\":\"0\",\"wed\":\"0\",\"thu\":\"0\",\"fri\":\"0\",\"sat\":\"0\",\"sun\":\"0\"}","created_on":"2020-11-04 17:02:34","updated_on":"2022-02-19 22:27:43","ordr":"0","featured":null,"brand":null,"product":null,"pending":null,"slug":"american-olean-marazzi-phoenix-phoenix","custom":null},
{"id":"69","title":"American Olean \/ Marazzi Denver","description":"not available","street":"12435 E 42nd Ave Unit 10","city":"Denver","state":"CO","postal_code":"80239","country":"223","lat":"39.7757418","lng":"-104.8440938","phone":"(303) 375-8253","fax":"","email":"","website":"https:\/\/www.hydroblok.com\/find-a-dealer\/daltile-american-olean-marazzi-sales-service-center\/","description_2":"","logo_id":"0","marker_id":"0","is_disabled":"0","open_hours":"{\"mon\":\"0\",\"tue\":\"0\",\"wed\":\"0\",\"thu\":\"0\",\"fri\":\"0\",\"sat\":\"0\",\"sun\":\"0\"}","created_on":"2020-11-04 17:02:34","updated_on":"2022-02-19 05:09:14","ordr":"0","featured":null,"brand":null,"product":null,"pending":null,"slug":"american-olean-marazzi-denver-denver","custom":null},
{"id":"70","title":"American Olean \/ Marazzi Salt Lake City","description":"not available","street":"2922 South 300 West","city":"Salt Lake City","state":"UT","postal_code":"84115","country":"223","lat":"40.7071115","lng":"-111.9004992","phone":"(801) 466-9736","fax":"","email":"","website":"https:\/\/www.hydroblok.com\/find-a-dealer\/american-olean-marazzi-salt-lake-city\/","description_2":"","logo_id":"0","marker_id":"0","is_disabled":"0","open_hours":"{\"mon\":\"0\",\"tue\":\"0\",\"wed\":\"0\",\"thu\":\"0\",\"fri\":\"0\",\"sat\":\"0\",\"sun\":\"0\"}","created_on":"2020-11-04 17:02:34","updated_on":"2022-02-19 22:33:59","ordr":"0","featured":null,"brand":null,"product":null,"pending":null,"slug":"american-olean-marazzi-salt-lake-city-salt-lake-city","custom":null},
{"id":"71","title":"American Olean \/ Marazzi Anaheim","description":"not available","street":"1340 S State College Blvd.","city":"Anaheim","state":"CA","postal_code":"92806","country":"223","lat":"33.8140353","lng":"-117.8881904","phone":"(714) 956-7565","fax":"","email":"","website":"https:\/\/www.hydroblok.com\/find-a-dealer\/american-olean-marazzi-anaheim\/","description_2":"","logo_id":"0","marker_id":"0","is_disabled":"0","open_hours":"{\"mon\":\"0\",\"tue\":\"0\",\"wed\":\"0\",\"thu\":\"0\",\"fri\":\"0\",\"sat\":\"0\",\"sun\":\"0\"}","created_on":"2020-11-04 17:02:34","updated_on":"2022-02-19 05:04:22","ordr":"0","featured":null,"brand":null,"product":null,"pending":null,"slug":"american-olean-marazzi-anaheim-anaheim","custom":null},
{"id":"72","title":"Dal Tile Fairfield CA","description":"","street":"2350 S Watney Way, Suite A","city":"Fairfield","state":"CA","postal_code":"94533","country":"223","lat":"38.2340894","lng":"-122.0729948","phone":"(707) 429-4592","fax":"","email":"","website":"https:\/\/www.hydroblok.com\/find-a-dealer\/daltile-fairfield-ca\/","description_2":"","logo_id":"0","marker_id":"0","is_disabled":"0","open_hours":"{\"mon\":\"0\",\"tue\":\"0\",\"wed\":\"0\",\"thu\":\"0\",\"fri\":\"0\",\"sat\":\"0\",\"sun\":\"0\"}","created_on":"2020-11-04 17:02:34","updated_on":"2022-02-19 04:55:11","ordr":"0","featured":null,"brand":null,"product":null,"pending":null,"slug":"dal-tile-fairfield-ca-fairfield","custom":null},
{"id":"73","title":"SariSand Tile","description":"","street":"685 Rio Road West","city":"Charlottesville","state":"VA","postal_code":"22901","country":"223","lat":"38.0841935","lng":"-78.47706769999999","phone":"434-964-4680","fax":"","email":"","website":"https:\/\/www.hydroblok.com\/find-a-dealer\/sarisand-tile\/","description_2":"","logo_id":"0","marker_id":"0","is_disabled":"0","open_hours":"{\"mon\":[\"09:00 AM - 04:00 PM\"],\"tue\":[\"09:00 AM - 04:00 PM\"],\"wed\":[\"09:00 AM - 04:00 PM\"],\"thu\":[\"09:00 AM - 04:00 PM\"],\"fri\":[\"09:00 AM - 04:00 PM\"],\"sat\":\"0\",\"sun\":\"0\"}","created_on":"2020-11-04 17:02:34","updated_on":"2024-05-02 13:55:19","ordr":"0","featured":null,"brand":null,"product":null,"pending":null,"slug":"sarisand-tile-charlottesville","custom":null},
{"id":"75","title":"Daltile Honolulu","description":"","street":"1200 N Nimitz Hwy","city":"Honolulu","state":"HI","postal_code":"96817","country":"223","lat":"21.3199084","lng":"-157.8764463","phone":"(808) 523-3660","fax":"","email":"","website":"https:\/\/www.hydroblok.com\/find-a-dealer\/daltile-honolulu\/","description_2":"","logo_id":"0","marker_id":"0","is_disabled":"0","open_hours":"{\"mon\":[\"07:00 AM - 05:00 PM\"],\"tue\":[\"07:00 AM - 05:00 PM\"],\"wed\":[\"07:00 AM - 05:00 PM\"],\"thu\":[\"07:00 AM - 05:00 PM\"],\"fri\":[\"07:00 AM - 05:00 PM\"],\"sat\":\"0\",\"sun\":\"0\"}","created_on":"2020-11-04 17:02:34","updated_on":"2022-02-21 20:13:58","ordr":"0","featured":null,"brand":null,"product":null,"pending":null,"slug":"daltile-honolulu-honolulu","custom":null},
{"id":"76","title":"Daltile Chico","description":"","street":"206 Meyers St.","city":"Chico","state":"CA","postal_code":"95928","country":"223","lat":"39.7142052","lng":"-121.8185072","phone":"(530) 343-6425","fax":"","email":"","website":"https:\/\/www.hydroblok.com\/find-a-dealer\/daltile-chico\/","description_2":"","logo_id":"0","marker_id":"0","is_disabled":"0","open_hours":"{\"mon\":[\"07:30 AM - 04:30 PM\"],\"tue\":[\"07:30 AM - 04:30 PM\"],\"wed\":[\"07:30 AM - 04:30 PM\"],\"thu\":[\"07:30 AM - 04:30 PM\"],\"fri\":[\"07:30 AM - 04:30 PM\"],\"sat\":\"0\",\"sun\":\"0\"}","created_on":"2020-11-04 17:02:34","updated_on":"2022-02-19 04:54:00","ordr":"0","featured":null,"brand":null,"product":null,"pending":null,"slug":"daltile-chico-chico","custom":null},
{"id":"77","title":"Daltile Redding CA","description":"","street":"3065 Crossroads Drive","city":"Redding","state":"CA","postal_code":"96003","country":"223","lat":"40.5612642","lng":"-122.2971608","phone":" (530) 221-8453","fax":"","email":"","website":"https:\/\/www.hydroblok.com\/find-a-dealer\/daltile-redding-ca\/","description_2":"","logo_id":"0","marker_id":"0","is_disabled":"0","open_hours":"{\"mon\":[\"07:30 AM - 04:30 PM\"],\"tue\":[\"09:30 AM - 04:30 PM\"],\"wed\":[\"07:30 AM - 04:30 PM\"],\"thu\":[\"07:30 AM - 04:30 PM\"],\"fri\":[\"07:30 AM - 04:30 PM\"],\"sat\":\"0\",\"sun\":\"0\"}","created_on":"2020-11-04 17:02:34","updated_on":"2022-02-19 04:53:16","ordr":"0","featured":null,"brand":null,"product":null,"pending":null,"slug":"daltile-redding-ca-redding","custom":null},
{"id":"78","title":"Standard Paint and Flooring L.L.C.","description":"","street":"149 Easy Way","city":"Wenatchee","state":"","postal_code":"98901","country":"223","lat":"47.4681167","lng":"-120.3326644","phone":"509-663-8574","fax":"","email":"","website":"https:\/\/www.hydroblok.com\/find-a-dealer\/standard-paint-and-flooring-l-l-c\/","description_2":"","logo_id":"0","marker_id":"0","is_disabled":"0","open_hours":"{\"mon\":[\"07:00 AM - 05:30 PM\"],\"tue\":[\"07:00 AM - 05:30 PM\"],\"wed\":[\"07:00 AM - 05:30 PM\"],\"thu\":[\"07:00 AM - 05:30 PM\"],\"fri\":[\"07:00 AM - 05:30 PM\"],\"sat\":[\"08:00 AM - 02:00 PM\"],\"sun\":\"0\"}","created_on":"2020-11-04 17:02:34","updated_on":"2022-02-21 03:16:06","ordr":"0","featured":null,"brand":null,"product":null,"pending":null,"slug":"standard-paint-and-flooring-l-l-c-wenatchee","custom":null},
{"id":"79","title":"Emser Tile","description":"","street":"5712 1400, S State College Blvd","city":"Anaheim","state":"CA","postal_code":"92806","country":"223","lat":"33.8127037","lng":"-117.8883735","phone":"(714) 778-5777","fax":"","email":"","website":"https:\/\/www.hydroblok.com\/find-a-dealer\/emser-tile\/","description_2":"","logo_id":"0","marker_id":"0","is_disabled":"0","open_hours":"{\"mon\":[\"06:30 AM - 04:00 PM\"],\"tue\":[\"06:30 AM - 04:00 PM\"],\"wed\":[\"06:30 AM - 04:00 PM\"],\"thu\":[\"06:30 AM - 04:00 PM\"],\"fri\":[\"06:30 AM - 04:00 PM\"],\"sat\":\"0\",\"sun\":\"0\"}","created_on":"2020-11-04 17:02:34","updated_on":"2022-02-19 05:05:19","ordr":"0","featured":null,"brand":null,"product":null,"pending":null,"slug":"emser-tile-anaheim","custom":null},
{"id":"80","title":"Northwest Trends","description":"","street":"11315 E Montgomery Dr","city":"Spokane Valley","state":"WA","postal_code":"99206","country":"223","lat":"47.6793565","lng":"-117.2524168","phone":"(509) 921-9677","fax":"","email":"","website":"https:\/\/www.hydroblok.com\/find-a-dealer\/northwest-trends\/","description_2":"","logo_id":"0","marker_id":"0","is_disabled":"0","open_hours":"{\"mon\":[\"08:00 AM - 05:30 PM\"],\"tue\":[\"08:00 AM - 05:30 PM\"],\"wed\":[\"08:00 AM - 05:30 PM\"],\"thu\":[\"08:00 AM - 05:30 PM\"],\"fri\":[\"08:00 AM - 05:30 PM\"],\"sat\":[\"10:00 AM - 04:00 PM\"],\"sun\":\"0\"}","created_on":"2020-11-09 20:53:04","updated_on":"2022-02-21 03:35:42","ordr":"0","featured":null,"brand":null,"product":null,"pending":null,"slug":"northwest-trends-spokane-valley","custom":null},
{"id":"81","title":"Floor Trader Outlet Spokane","description":"","street":"6227 N Division S","city":"Spokane","state":"WA","postal_code":"99208","country":"223","lat":"47.7145836","lng":"-117.4118987","phone":"(509) 309-0673","fax":"","email":"","website":"https:\/\/www.hydroblok.com\/find-a-dealer\/floor-trader-outlet-spokane\/","description_2":"","logo_id":"0","marker_id":"0","is_disabled":"1","open_hours":"{\"mon\":[\"07:00 AM - 07:00 PM\"],\"tue\":[\"07:00 AM - 07:00 PM\"],\"wed\":[\"07:00 AM - 07:00 PM\"],\"thu\":[\"07:00 AM - 07:00 PM\"],\"fri\":[\"07:00 AM - 07:00 PM\"],\"sat\":[\"07:00 AM - 07:00 PM\"],\"sun\":[\"08:00 AM - 05:00 PM\"]}","created_on":"2020-11-09 20:56:09","updated_on":"2024-02-02 19:24:24","ordr":"0","featured":null,"brand":null,"product":null,"pending":null,"slug":"floor-trader-outlet-spokane-spokane","custom":null},
{"id":"83","title":"Mount Vernon Carpet One Floor and Home","description":"","street":"400 West Fir Street","city":"Mount Vernon","state":"WA","postal_code":"98273","country":"223","lat":"48.427979","lng":"-122.3383014","phone":"360-336-6533","fax":"","email":"","website":"https:\/\/www.hydroblok.com\/find-a-dealer\/Mount%20Vernon%20Carpet%20One%20Floor%20and%20Home\/","description_2":"","logo_id":"0","marker_id":"0","is_disabled":"0","open_hours":"{\"mon\":[\"09:00 AM - 05:30 PM\"],\"tue\":[\"09:00 AM - 05:30 PM\"],\"wed\":[\"09:00 AM - 05:30 PM\"],\"thu\":[\"09:00 AM - 05:30 PM\"],\"fri\":[\"09:00 AM - 05:30 PM\"],\"sat\":[\"09:00 AM - 06:30 PM\"],\"sun\":\"0\"}","created_on":"2021-02-09 19:11:23","updated_on":"2022-02-19 04:41:20","ordr":"0","featured":null,"brand":null,"product":null,"pending":null,"slug":"mount-vernon-carpet-one-floor-and-home-mount-vernon","custom":null},
{"id":"84","title":"Emser Tile - La Vista NE","description":"","street":"11941 Centennial Road, Suite 6","city":"La Vista","state":"NE","postal_code":"68128","country":"223","lat":"41.169704","lng":"-96.099639","phone":"402-339-8453","fax":"","email":"","website":"","description_2":"","logo_id":"0","marker_id":"0","is_disabled":null,"open_hours":"{\"mon\":[\"07:30 AM - 05:00 PM\"],\"tue\":[\"07:30 AM - 05:00 PM\"],\"wed\":[\"07:30 AM - 05:00 PM\"],\"thu\":[\"07:30 AM - 05:00 PM\"],\"fri\":[\"07:30 AM - 05:00 PM\"],\"sat\":[\"08:00 AM - 01:00 PM\"],\"sun\":\"0\"}","created_on":"2021-02-10 17:59:03","updated_on":null,"ordr":"0","featured":null,"brand":null,"product":null,"pending":null,"slug":null,"custom":null},
{"id":"85","title":"Daltile Plymouth Meeting","description":"","street":"5105 Campus Dr","city":"Plymouth Meeting","state":"PA","postal_code":"19462","country":"223","lat":"40.1142465","lng":"-75.265862","phone":"610-825-5381","fax":"","email":"","website":"https:\/\/www.hydroblok.com\/find-a-dealer\/daltile-plymouth-meeting\/","description_2":"","logo_id":"0","marker_id":"0","is_disabled":"0","open_hours":"{\"mon\":[\"07:00 AM - 05:00 PM\"],\"tue\":[\"07:00 AM - 05:00 PM\"],\"wed\":[\"07:00 AM - 05:00 PM\"],\"thu\":[\"07:00 AM - 05:00 PM\"],\"fri\":[\"07:00 AM - 05:00 PM\"],\"sat\":\"0\",\"sun\":\"0\"}","created_on":"2021-02-12 17:49:37","updated_on":"2022-02-21 20:22:23","ordr":"0","featured":null,"brand":null,"product":null,"pending":null,"slug":"daltile-plymouth-meeting-plymouth-meeting","custom":null},
{"id":"86","title":"Weilers Kitchens & Bath Designs","description":"","street":"350 Bustleton Pike","city":"Feasterville-Trevose","state":"PA","postal_code":"19053","country":"223","lat":"40.143743","lng":"-75.0056642","phone":"215-357-9300","fax":"","email":"","website":"https:\/\/www.hydroblok.com\/find-a-dealer\/weilers-kitchens-bath-designs\/","description_2":"","logo_id":"0","marker_id":"0","is_disabled":"0","open_hours":"{\"mon\":[\"07:00 AM - 05:00 PM\"],\"tue\":[\"07:00 AM - 05:00 PM\"],\"wed\":[\"07:00 AM - 05:00 PM\"],\"thu\":[\"07:00 AM - 05:00 PM\"],\"fri\":[\"07:00 AM - 05:00 PM\"],\"sat\":[\"09:00 AM - 02:00 PM\"],\"sun\":\"0\"}","created_on":"2021-02-12 18:56:26","updated_on":"2022-02-21 20:04:50","ordr":"0","featured":null,"brand":null,"product":null,"pending":null,"slug":"weilers-kitchens-bath-designs-feasterville-trevose","custom":null},
{"id":"87","title":"Clarks Building & Decorating","description":"","street":"417 Westinghouse Dr","city":"Hot Springs National Park","state":"AR","postal_code":"71901","country":"223","lat":"34.4954462","lng":"-92.9850171","phone":"(501) 262-2262","fax":"","email":"","website":"https:\/\/www.hydroblok.com\/find-a-dealer\/clarks-building-decorating-center\/","description_2":"","logo_id":"0","marker_id":"0","is_disabled":"0","open_hours":"{\"mon\":[\"07:30 AM - 05:00 PM\"],\"tue\":[\"07:30 AM - 05:00 PM\"],\"wed\":[\"07:30 AM - 05:00 PM\"],\"thu\":[\"07:30 AM - 05:00 PM\"],\"fri\":[\"07:30 AM - 05:00 PM\"],\"sat\":[\"08:00 AM - 03:00 PM\"],\"sun\":\"0\"}","created_on":"2021-02-12 19:01:59","updated_on":"2022-02-21 21:38:40","ordr":"0","featured":null,"brand":null,"product":null,"pending":null,"slug":"clarks-building-decorating-hot-springs-national-park","custom":null},
{"id":"88","title":"EMCO \/ Ensuite Windsor","description":"","street":"2740 Temple Dr","city":"Windsor","state":"ON","postal_code":"N8W 5J5","country":"38","lat":"42.2881061","lng":"-82.9779609","phone":"(519) 948-8131","fax":"","email":"","website":"https:\/\/www.hydroblok.com\/find-a-dealer\/emco-ensuite-windsor\/","description_2":"","logo_id":"0","marker_id":"0","is_disabled":"0","open_hours":"{\"mon\":[\"07:00 AM - 04:30 PM\"],\"tue\":[\"07:00 AM - 04:30 PM\"],\"wed\":[\"07:00 AM - 04:30 PM\"],\"thu\":[\"07:00 AM - 04:30 PM\"],\"fri\":[\"07:00 AM - 04:30 PM\"],\"sat\":[\"09:00 AM - 01:00 PM\"],\"sun\":\"0\"}","created_on":"2021-02-12 19:04:45","updated_on":"2022-01-16 19:03:36","ordr":"0","featured":null,"brand":null,"product":null,"pending":null,"slug":"emco-ensuite-windsor-windsor","custom":null},
{"id":"89","title":"EMCO","description":"","street":"300 Fee St","city":"North Bay","state":"ON","postal_code":"P1B 8G5","country":"38","lat":"46.3249727","lng":"-79.48921059999999","phone":"(705) 476-0701","fax":"","email":"","website":"https:\/\/www.hydroblok.com\/find-a-dealer\/emco-emco-north-bay\/","description_2":"","logo_id":"0","marker_id":"0","is_disabled":"0","open_hours":"{\"mon\":[\"06:30 AM - 05:00 PM\"],\"tue\":[\"06:30 AM - 05:00 PM\"],\"wed\":[\"06:30 AM - 05:00 PM\"],\"thu\":[\"06:30 AM - 05:00 PM\"],\"fri\":[\"06:30 AM - 05:00 PM\"],\"sat\":\"0\",\"sun\":\"0\"}","created_on":"2021-02-12 19:06:40","updated_on":"2022-02-21 20:16:47","ordr":"0","featured":null,"brand":null,"product":null,"pending":null,"slug":"emco-north-bay","custom":null},
{"id":"90","title":"Showroom Flooring","description":"","street":"870 Cliffe Ave","city":"Courtenay","state":"BC","postal_code":"V9N 2J7","country":"38","lat":"49.6888081","lng":"-124.9952123","phone":"(250) 871-8453","fax":"","email":"sales@showroomflooring.ca","website":"https:\/\/showroomflooring.ca\/","description_2":"","logo_id":"0","marker_id":"0","is_disabled":"0","open_hours":"{\"mon\":[\"09:00 AM - 05:00 PM\"],\"tue\":[\"09:00 AM - 05:00 PM\"],\"wed\":[\"09:00 AM - 05:00 PM\"],\"thu\":[\"09:00 AM - 05:00 PM\"],\"fri\":[\"09:00 AM - 05:00 PM\"],\"sat\":\"0\",\"sun\":\"0\"}","created_on":"2021-02-12 19:09:50","updated_on":"2023-12-05 21:29:03","ordr":"0","featured":null,"brand":null,"product":null,"pending":null,"slug":"showroom-flooring-courtenay","custom":null},
{"id":"91","title":"Daltile Santa Rosa CA","description":"","street":"258 Sutton Pl Ste # 101","city":"Santa Rosa","state":"CA","postal_code":"95407","country":"223","lat":"38.3903391","lng":"-122.721755","phone":"707-588-0842","fax":"","email":"","website":"https:\/\/www.hydroblok.com\/find-a-dealer\/daltile-santa-rosa-ca\/","description_2":"","logo_id":"0","marker_id":"0","is_disabled":"0","open_hours":"{\"mon\":[\"07:30 AM - 04:00 PM\"],\"tue\":[\"07:30 AM - 04:00 PM\"],\"wed\":[\"07:30 AM - 04:00 PM\"],\"thu\":[\"07:30 AM - 04:00 PM\"],\"fri\":[\"07:30 AM - 04:00 PM\"],\"sat\":\"0\",\"sun\":\"0\"}","created_on":"2021-02-16 20:32:23","updated_on":"2022-02-19 04:54:44","ordr":"0","featured":null,"brand":null,"product":null,"pending":null,"slug":"daltile-santa-rosa-ca-santa-rosa","custom":null},
{"id":"92","title":"EMCO Corporation","description":"","street":"800 Wilson Rd S #2","city":"Oshawa","state":"Ontario","postal_code":"L1H 6E8","country":"38","lat":"43.879735","lng":"-78.834927","phone":"(905) 723-1173","fax":"","email":"","website":"https:\/\/www.hydroblok.com\/find-a-dealer\/emco-emco-oshawa\/","description_2":"","logo_id":"0","marker_id":"0","is_disabled":"0","open_hours":"{\"mon\":[\"07:00 AM - 04:30 PM\"],\"tue\":[\"07:00 AM - 04:30 PM\"],\"wed\":[\"07:00 AM - 04:30 PM\"],\"thu\":[\"07:00 AM - 04:30 PM\"],\"fri\":[\"07:00 AM - 04:30 PM\"],\"sat\":\"0\",\"sun\":\"0\"}","created_on":"2021-04-07 22:18:49","updated_on":"2022-02-21 20:18:34","ordr":"0","featured":null,"brand":null,"product":null,"pending":null,"slug":"emco-corporation-oshawa","custom":null},
{"id":"93","title":"Insulation and Supply - Manitowoc","description":"","street":"1129 S 41st Street","city":"Manitowoc","state":"WI","postal_code":"54220","country":"223","lat":"44.0866485","lng":"-87.697785","phone":"1-800-242-7619","fax":"","email":"","website":"https:\/\/www.hydroblok.com\/find-a-dealer\/insulation-supply-manitowoc\/","description_2":"","logo_id":"0","marker_id":"0","is_disabled":"0","open_hours":"{\"mon\":[\"08:00 AM - 04:30 PM\"],\"tue\":[\"08:00 AM - 04:30 PM\"],\"wed\":[\"08:00 AM - 04:30 PM\"],\"thu\":[\"08:00 AM - 04:30 PM\"],\"fri\":[\"08:00 AM - 04:30 PM\"],\"sat\":\"0\",\"sun\":\"0\"}","created_on":"2021-04-08 19:47:21","updated_on":"2022-01-16 18:36:46","ordr":"0","featured":null,"brand":null,"product":null,"pending":null,"slug":"insulation-and-supply-manitowoc-manitowoc","custom":null},
{"id":"94","title":"Insulation and Supply - Green Bay","description":"","street":"3158 Market St","city":"Green Bay","state":"WI","postal_code":"54304","country":"223","lat":"44.4635666","lng":"-88.08583980000002","phone":"1-800-472-0048","fax":"","email":"","website":"https:\/\/www.hydroblok.com\/find-a-dealer\/insulation-supply-green-bay\/","description_2":"","logo_id":"0","marker_id":"0","is_disabled":"0","open_hours":"{\"mon\":[\"07:00 AM - 04:30 PM\"],\"tue\":[\"07:00 AM - 04:30 PM\"],\"wed\":[\"07:00 AM - 04:30 PM\"],\"thu\":[\"07:00 AM - 04:30 PM\"],\"fri\":[\"07:00 AM - 04:30 PM\"],\"sat\":\"0\",\"sun\":\"0\"}","created_on":"2021-04-08 19:47:39","updated_on":"2022-01-16 18:40:58","ordr":"0","featured":null,"brand":null,"product":null,"pending":null,"slug":"insulation-and-supply-green-bay-green-bay","custom":null},
{"id":"95","title":"Insulation and Supply - Greenville","description":"","street":"N1044 Quality Dr.","city":"Greenville","state":"WI","postal_code":"54942","country":"223","lat":"44.2783713","lng":"-88.5076473","phone":"1-800-223-1061","fax":"","email":"","website":"https:\/\/www.hydroblok.com\/find-a-dealer\/insulation-and-supply-greenville\/","description_2":"","logo_id":"0","marker_id":"0","is_disabled":"0","open_hours":"{\"mon\":[\"08:00 AM - 04:30 PM\"],\"tue\":[\"08:00 AM - 04:30 PM\"],\"wed\":[\"08:00 AM - 04:30 PM\"],\"thu\":[\"08:00 AM - 04:30 PM\"],\"fri\":[\"08:00 AM - 04:30 PM\"],\"sat\":\"0\",\"sun\":\"0\"}","created_on":"2021-04-08 19:49:19","updated_on":"2022-01-16 18:42:08","ordr":"0","featured":null,"brand":null,"product":null,"pending":null,"slug":"insulation-and-supply-greenville-greenville","custom":null},
{"id":"96","title":"Continental Flooring Installation","description":"","street":"1395 Alpha Lake Rd.","city":"Whistler","state":"BC","postal_code":"V0N 1B1","country":"38","lat":"50.089897","lng":"-123.0311251","phone":"604-962-8453","fax":"","email":"","website":"https:\/\/www.hydroblok.com\/find-a-dealer\/continental-flooring-installation\/","description_2":"","logo_id":"0","marker_id":"1","is_disabled":"0","open_hours":"{\"mon\":[\"08:30 AM - 05:30 PM\"],\"tue\":[\"08:30 AM - 05:55 PM\"],\"wed\":[\"08:30 AM - 05:30 PM\"],\"thu\":[\"08:30 AM - 05:30 PM\"],\"fri\":[\"08:30 AM - 05:30 PM\"],\"sat\":\"0\",\"sun\":\"0\"}","created_on":"2021-06-17 18:08:55","updated_on":"2022-01-18 18:54:49","ordr":"0","featured":null,"brand":null,"product":null,"pending":null,"slug":"continental-flooring-installation-whistler","custom":null},
{"id":"97","title":"Daltile Loveland CO","description":"","street":"5741 Earhart Rd","city":"Loveland","state":"CO","postal_code":"80538","country":"223","lat":"40.4508133","lng":"-104.9952031","phone":"970-622-9741","fax":"","email":"","website":"https:\/\/www.hydroblok.com\/find-a-dealer\/daltile-daltile-loveland-co\/","description_2":"","logo_id":"0","marker_id":"1","is_disabled":"0","open_hours":"{\"mon\":[\"07:00 AM - 04:00 PM\"],\"tue\":[\"07:00 AM - 04:00 PM\"],\"wed\":[\"07:00 AM - 04:00 PM\"],\"thu\":[\"07:00 AM - 04:00 PM\"],\"fri\":[\"07:00 AM - 04:00 PM\"],\"sat\":\"1\",\"sun\":\"1\"}","created_on":"2021-06-21 21:05:49","updated_on":"2022-02-19 05:07:58","ordr":"0","featured":null,"brand":null,"product":null,"pending":null,"slug":"daltile-loveland-co-loveland","custom":null},
{"id":"99","title":"Ceramic Tileworks Center, Omaha, NE","description":"","street":"11005 W. Maple Road","city":"Omaha","state":"NE","postal_code":"68164","country":"223","lat":"41.2876869","lng":"-96.0849238","phone":"402-493-1567","fax":"","email":"","website":"https:\/\/www.hydroblok.com\/find-a-dealer\/ceramic-tileworks-center\/","description_2":"","logo_id":"0","marker_id":"1","is_disabled":"0","open_hours":"{\"mon\":[\"08:00 AM - 07:30 PM\"],\"tue\":[\"08:00 AM - 07:30 PM\"],\"wed\":[\"08:00 AM - 07:30 PM\"],\"thu\":[\"08:00 AM - 07:30 PM\"],\"fri\":[\"08:00 AM - 06:00 PM\"],\"sat\":[\"09:00 AM - 04:00 PM\"],\"sun\":\"0\"}","created_on":"2021-08-31 20:29:33","updated_on":"2022-02-21 22:05:40","ordr":"0","featured":null,"brand":null,"product":null,"pending":null,"slug":"ceramic-tileworks-center-omaha-ne-omaha","custom":null},
{"id":"100","title":"Emser Tile, Wichita KS","description":"","street":"2333 S West St Suite 301","city":"Wichita","state":"KS","postal_code":"67213","country":"223","lat":"37.653014","lng":"-97.3903785","phone":"316-943-1441","fax":"","email":"","website":"https:\/\/www.hydroblok.com\/find-a-dealer\/emser-emser-wichita\/","description_2":"","logo_id":"0","marker_id":"1","is_disabled":"0","open_hours":"{\"mon\":[\"07:30 AM - 04:00 PM\"],\"tue\":[\"07:30 AM - 04:00 PM\"],\"wed\":[\"07:30 AM - 04:00 PM\"],\"thu\":[\"07:30 AM - 04:00 PM\"],\"fri\":[\"07:30 AM - 04:00 PM\"],\"sat\":\"0\",\"sun\":\"0\"}","created_on":"2021-08-31 20:31:53","updated_on":"2022-02-21 22:00:30","ordr":"0","featured":null,"brand":null,"product":null,"pending":null,"slug":"emser-tile-wichita-ks-wichita","custom":null},
{"id":"101","title":"Signature Interior Expressions, Neosho MO","description":"","street":"12650 Hammer Rd","city":"Neosho","state":"MO","postal_code":"64850","country":"223","lat":"36.8856371","lng":"-94.4262768","phone":"417-451-0535","fax":"","email":"","website":"https:\/\/www.hydroblok.com\/find-a-dealer\/signature-interior-expressions-signature-interior-expressions-neosho-mo\/","description_2":"","logo_id":"0","marker_id":"1","is_disabled":"0","open_hours":"{\"mon\":\"0\",\"tue\":[\"09:00 AM - 05:00 PM\"],\"wed\":[\"09:00 AM - 05:00 PM\"],\"thu\":[\"09:00 AM - 05:00 PM\"],\"fri\":[\"09:00 AM - 05:00 PM\"],\"sat\":\"0\",\"sun\":\"0\"}","created_on":"2021-08-31 20:35:23","updated_on":"2022-03-10 22:10:54","ordr":"0","featured":null,"brand":null,"product":null,"pending":null,"slug":"signature-interior-expressions-neosho-mo-neosho","custom":null},
{"id":"102","title":"Emser Tile, La Vista NE","description":"","street":"11941 Centennial Rd Suite #6","city":"La Vista","state":"NE","postal_code":"68128","country":"223","lat":"41.169704","lng":"-96.099639","phone":"402-339-8453","fax":"","email":"","website":"https:\/\/www.hydroblok.com\/find-a-dealer\/emser-emser-omaha\/","description_2":"","logo_id":"0","marker_id":"1","is_disabled":"0","open_hours":"{\"mon\":[\"07:00 AM - 05:00 PM\"],\"tue\":[\"07:00 AM - 05:00 PM\"],\"wed\":[\"07:00 AM - 05:00 PM\"],\"thu\":[\"07:00 AM - 05:00 PM\"],\"fri\":[\"07:00 AM - 05:00 PM\"],\"sat\":\"0\",\"sun\":\"0\"}","created_on":"2021-08-31 20:38:20","updated_on":"2022-02-21 22:07:12","ordr":"0","featured":null,"brand":null,"product":null,"pending":null,"slug":"emser-tile-la-vista-ne-la-vista","custom":null},
{"id":"103","title":"Emser Tile, Little Rock AR","description":"","street":"10068 Maumelle Blvd","city":"Little Rock","state":"AR","postal_code":"72113","country":"223","lat":"34.8218666","lng":"-92.3729553","phone":"","fax":"","email":"","website":"https:\/\/www.hydroblok.com\/find-a-dealer\/emser-emser-little-rock\/","description_2":"","logo_id":"0","marker_id":"1","is_disabled":"0","open_hours":"{\"mon\":[\"06:30 AM - 04:00 PM\"],\"tue\":[\"06:30 AM - 04:00 PM\"],\"wed\":[\"06:30 AM - 04:00 PM\"],\"thu\":[\"06:30 AM - 04:00 PM\"],\"fri\":[\"06:30 AM - 04:00 PM\"],\"sat\":\"0\",\"sun\":\"0\"}","created_on":"2021-08-31 20:41:56","updated_on":"2022-02-21 21:45:28","ordr":"0","featured":null,"brand":null,"product":null,"pending":null,"slug":"emser-tile-little-rock-ar-little-rock","custom":null},
{"id":"104","title":"Daltile Maryland Heights, MO","description":"","street":"2059 Westport Center Dr","city":"Maryland Heights","state":"MO","postal_code":"63146","country":"223","lat":"38.69539140000001","lng":"-90.4222125","phone":"(314) 997-6970","fax":"","email":"","website":"https:\/\/www.hydroblok.com\/find-a-dealer\/daltile-daltile-maryland-heights\/","description_2":"","logo_id":"0","marker_id":"1","is_disabled":"0","open_hours":"{\"mon\":[\"08:00 AM - 04:30 PM\"],\"tue\":[\"08:00 AM - 04:00 AM\"],\"wed\":[\"08:00 AM - 04:00 AM\"],\"thu\":[\"08:00 AM - 04:00 AM\"],\"fri\":[\"08:30 AM - 04:00 PM\"],\"sat\":[\"09:00 AM - 01:00 PM\"],\"sun\":\"0\"}","created_on":"2021-09-17 17:41:24","updated_on":"2022-02-21 21:37:01","ordr":"0","featured":null,"brand":null,"product":null,"pending":null,"slug":"daltile-maryland-heights-mo-maryland-heights","custom":null},
{"id":"105","title":"Daltile Knoxville, TN","description":"","street":"1714 Louisville Dr. Ste B","city":"Knoxville, TN","state":"TN","postal_code":"37921-5903","country":"223","lat":"35.9603772","lng":"-84.011223","phone":"(865) 588-2155","fax":"","email":"","website":"https:\/\/www.hydroblok.com\/find-a-dealer\/daltile-daltile-knoxville\/","description_2":"","logo_id":"0","marker_id":"1","is_disabled":"0","open_hours":"{\"mon\":[\"07:00 AM - 04:30 PM\"],\"tue\":[\"07:00 AM - 04:30 PM\"],\"wed\":[\"07:00 AM - 04:30 PM\"],\"thu\":[\"07:00 AM - 04:30 PM\"],\"fri\":[\"07:00 AM - 04:30 PM\"],\"sat\":\"0\",\"sun\":\"0\"}","created_on":"2021-09-17 17:43:17","updated_on":"2022-02-21 21:30:41","ordr":"0","featured":null,"brand":null,"product":null,"pending":null,"slug":"daltile-knoxville-tn-knoxville-tn","custom":null},
{"id":"106","title":"Daltile Burr Ridge, IL","description":"","street":"7600 South Grant St.","city":"Burr Ridge, IL","state":"IL","postal_code":"60527","country":"223","lat":"41.7493846","lng":"-87.93056949999999","phone":"(630) 789-1400","fax":"","email":"","website":"https:\/\/www.hydroblok.com\/find-a-dealer\/daltile-daltile-burr-ridge\/","description_2":"","logo_id":"0","marker_id":"1","is_disabled":"0","open_hours":"{\"mon\":[\"07:00 AM - 04:00 PM\"],\"tue\":[\"07:00 AM - 04:00 PM\"],\"wed\":[\"07:00 AM - 04:00 PM\"],\"thu\":[\"07:00 AM - 04:00 PM\"],\"fri\":[\"07:00 AM - 04:00 PM\"],\"sat\":\"0\",\"sun\":\"0\"}","created_on":"2021-09-17 17:45:01","updated_on":"2022-02-21 21:33:46","ordr":"0","featured":null,"brand":null,"product":null,"pending":null,"slug":"daltile-burr-ridge-il-burr-ridge-il","custom":null},
{"id":"107","title":"Daltile South Bend, IN","description":"","street":"3235 Rosetta Place Dr. Ste # 1","city":"South Bend, IN","state":"IN","postal_code":"46628","country":"223","lat":"41.7125953","lng":"-86.29717910000001","phone":"","fax":"","email":"","website":"https:\/\/www.hydroblok.com\/find-a-dealer\/daltile-daltile-south-bend\/","description_2":"","logo_id":"0","marker_id":"1","is_disabled":"0","open_hours":"{\"mon\":[\"07:30 AM - 04:00 PM\"],\"tue\":[\"07:30 AM - 04:00 PM\"],\"wed\":[\"07:30 AM - 04:00 PM\"],\"thu\":[\"07:30 AM - 04:00 PM\"],\"fri\":[\"07:30 AM - 04:00 PM\"],\"sat\":\"0\",\"sun\":\"0\"}","created_on":"2021-09-17 17:47:10","updated_on":"2022-02-21 21:32:27","ordr":"0","featured":null,"brand":null,"product":null,"pending":null,"slug":"daltile-south-bend-in-south-bend-in","custom":null},
{"id":"108","title":"Daltile Springdale, AR","description":"","street":"373-A Agnes Drive ","city":"Springdale, AR","state":"AR","postal_code":"72762-4134","country":"223","lat":"36.1725586","lng":"-94.22605320000001","phone":"(479) 361-5825","fax":"","email":"","website":"https:\/\/www.hydroblok.com\/find-a-dealer\/daltile-daltile-springdale\/","description_2":"","logo_id":"0","marker_id":"1","is_disabled":"0","open_hours":"{\"mon\":[\"07:30 AM - 04:30 PM\"],\"tue\":[\"07:30 AM - 04:30 PM\"],\"wed\":[\"07:30 AM - 04:30 PM\"],\"thu\":[\"07:30 AM - 04:30 PM\"],\"fri\":[\"07:30 AM - 04:30 PM\"],\"sat\":\"0\",\"sun\":\"0\"}","created_on":"2021-09-17 17:48:48","updated_on":"2022-02-21 21:47:23","ordr":"0","featured":null,"brand":null,"product":null,"pending":null,"slug":"daltile-springdale-ar-springdale-ar","custom":null},
{"id":"109","title":"Carolina Tile and Stone, Cornelius, NC","description":"","street":"19020 Statesville Rd","city":"Cornelius, NC","state":"NC","postal_code":"28031","country":"223","lat":"35.4735146","lng":"-80.87397","phone":"(704) 892-2442","fax":"","email":"","website":"https:\/\/www.hydroblok.com\/find-a-dealer\/carolina-tile-and-stone\/","description_2":"","logo_id":"0","marker_id":"1","is_disabled":"0","open_hours":"{\"mon\":[\"09:00 AM - 05:00 PM\"],\"tue\":[\"09:00 AM - 05:00 PM\"],\"wed\":[\"09:00 AM - 05:00 PM\"],\"thu\":[\"09:00 AM - 05:00 PM\"],\"fri\":[\"09:00 AM - 05:00 PM\"],\"sat\":[\"10:00 AM - 02:00 PM\"],\"sun\":\"0\"}","created_on":"2021-09-17 17:50:53","updated_on":"2022-02-21 21:29:06","ordr":"0","featured":null,"brand":null,"product":null,"pending":null,"slug":"carolina-tile-and-stone-cornelius-nc-cornelius-nc","custom":null},
{"id":"112","title":"Ralph's Floors, Lynden, WA","description":"","street":"1842 Front Street","city":"Lynden","state":"WA","postal_code":"98264-1723","country":"223","lat":"48.939556","lng":"-122.4772879","phone":"(360) 227-8494","fax":"","email":"","website":"https:\/\/www.hydroblok.com\/find-a-dealer\/Ralphs-Floors-Lynden-WA\/","description_2":"","logo_id":"0","marker_id":"1","is_disabled":"0","open_hours":"{\"mon\":[\"08:30 AM - 05:30 PM\"],\"tue\":[\"08:30 AM - 05:30 PM\"],\"wed\":[\"08:30 AM - 05:30 PM\"],\"thu\":[\"08:30 AM - 05:30 PM\"],\"fri\":[\"08:30 AM - 05:30 PM\"],\"sat\":[\"09:00 AM - 05:00 PM\"],\"sun\":\"0\"}","created_on":"2021-09-29 16:39:53","updated_on":"2022-02-19 04:38:08","ordr":"0","featured":null,"brand":null,"product":null,"pending":null,"slug":"ralph-s-floors-lynden-wa-lynden","custom":null},
{"id":"113","title":"Emser Tile","description":"","street":"10550 Lackman Rd","city":"Lenexa","state":"KS","postal_code":"66219","country":"223","lat":"38.93722580000001","lng":"-94.76140540000002","phone":"(913) 894-4888 ","fax":"","email":"","website":"https:\/\/www.hydroblok.com\/find-a-dealer\/emser-emser-kansas\/","description_2":"","logo_id":"0","marker_id":"1","is_disabled":"0","open_hours":"{\"mon\":[\"06:30 AM - 04:00 PM\"],\"tue\":[\"06:30 AM - 04:00 PM\"],\"wed\":[\"06:30 AM - 04:00 PM\"],\"thu\":[\"06:30 AM - 04:00 PM\"],\"fri\":[\"06:30 AM - 04:00 PM\"],\"sat\":[\"08:00 AM - 01:00 PM\"],\"sun\":\"0\"}","created_on":"2021-10-21 21:01:55","updated_on":"2022-02-21 21:58:47","ordr":"0","featured":null,"brand":null,"product":null,"pending":null,"slug":"emser-tile-lenexa","custom":null},
{"id":"114","title":"Mckenna DIstribution","description":"We can provide you with your entire flooring system from underlayment to surface protection, finishing trims and everything in between.","street":"620 Vennels St.","city":"Regina","state":"SK","postal_code":"S4N5S5","country":"38","lat":"50.46878719999999","lng":"-104.5771278","phone":"306-359-7755","fax":"306-525-9050","email":"info@mckdist.com","website":"https:\/\/www.hydroblok.com\/find-a-dealer\/mckenna-distribution\/","description_2":"We work hard to select products and lines that you and your customers will love for years after your project is complete.","logo_id":"0","marker_id":"1","is_disabled":"1","open_hours":"{\"mon\":[\"08:00 AM - 05:00 PM\"],\"tue\":[\"08:00 AM - 05:00 PM\"],\"wed\":[\"08:00 AM - 05:00 PM\"],\"thu\":[\"08:00 AM - 05:00 PM\"],\"fri\":[\"08:00 AM - 05:00 PM\"],\"sat\":\"0\",\"sun\":\"0\"}","created_on":"2021-12-21 15:26:31","updated_on":"2023-12-22 02:31:27","ordr":"0","featured":null,"brand":null,"product":null,"pending":null,"slug":"mckenna-distribution-regina","custom":null},
{"id":"115","title":"Daltile \/ Daltile Columbus","description":"Daltile is the best-selling tile brand in America and the largest ceramic manufacturer in the world. Our team is dedicated to creating the best value for our customers through innovative, high-quality products and exceptional customer service.  Unlike most of our competitors, many of our collections are proudly designed, developed, and manufactured in the USA.","street":"730 Dearborn Park Ln","city":"Columbus","state":"OH","postal_code":"43085","country":"223","lat":"40.1167844","lng":"-82.9974692","phone":"(614) 433-9181","fax":"","email":"Columbus.SSC219@Daltile.com","website":"https:\/\/www.hydroblok.com\/find-a-dealer\/daltile-daltile-columbus\/","description_2":"","logo_id":"4","marker_id":"1","is_disabled":"0","open_hours":"{\"mon\":[\"07:30 AM - 04:00 PM\"],\"tue\":[\"07:30 AM - 04:00 AM\"],\"wed\":[\"07:30 AM - 04:00 AM\"],\"thu\":[\"07:30 AM - 04:00 AM\"],\"fri\":[\"07:00 AM - 04:00 AM\"],\"sat\":\"0\",\"sun\":\"0\"}","created_on":"2022-01-13 20:17:12","updated_on":"2022-01-16 18:43:01","ordr":"0","featured":null,"brand":null,"product":null,"pending":null,"slug":"daltile-daltile-columbus-columbus","custom":null},
{"id":"116","title":"Daltile \/ Daltile St.Louis","description":"Daltile is the best-selling tile brand in America and the largest ceramic manufacturer in the world. Our team is dedicated to creating the best value for our customers through innovative, high-quality products and exceptional customer service.  Unlike most of our competitors, many of our collections are proudly designed, developed, and manufactured in the USA.","street":"2051 Westport Center Dr","city":"St. Louis","state":"MO","postal_code":"63146","country":"223","lat":"38.6944753","lng":"-90.4221519","phone":"(314) 824-1367","fax":"","email":"Columbus.SSC219@Daltile.com","website":"https:\/\/www.hydroblok.com\/find-a-dealer\/daltile-daltile-st-louis\/","description_2":"","logo_id":"4","marker_id":"1","is_disabled":"0","open_hours":"{\"mon\":[\"07:30 AM - 04:00 PM\"],\"tue\":[\"07:30 AM - 04:00 PM\"],\"wed\":[\"07:30 AM - 04:00 PM\"],\"thu\":[\"07:30 AM - 04:00 PM\"],\"fri\":[\"07:30 AM - 04:00 PM\"],\"sat\":[\"09:00 AM - 01:00 PM\"],\"sun\":\"0\"}","created_on":"2022-01-13 20:21:20","updated_on":"2022-01-16 18:44:10","ordr":"0","featured":null,"brand":null,"product":null,"pending":null,"slug":"daltile-daltile-st-louis-st-louis","custom":null},
{"id":"117","title":"Gordon Wall Windows & Floors ","description":"","street":"801 Victoria St","city":"Trail","state":"BC","postal_code":"V1R 3T3","country":"38","lat":"49.0968768","lng":"-117.7117095","phone":"(250) 364-2537","fax":"","email":"","website":"https:\/\/www.hydroblok.com\/find-a-dealer\/gw-floors-gordon-walls-windows-floors\/","description_2":"","logo_id":"0","marker_id":"1","is_disabled":"0","open_hours":"{\"mon\":\"0\",\"tue\":\"0\",\"wed\":\"0\",\"thu\":\"0\",\"fri\":\"0\",\"sat\":\"0\",\"sun\":\"0\"}","created_on":"2022-01-25 19:44:02","updated_on":"2022-05-23 03:50:31","ordr":"0","featured":null,"brand":null,"product":null,"pending":null,"slug":"gordon-wall-windows-floors-trail","custom":null},
{"id":"118","title":"Home Hardware Nelson ","description":"","street":"101 Mcdonald Drive","city":"Nelson","state":"BC","postal_code":"V1L 6B2","country":"38","lat":"49.4934924","lng":"-117.2991534","phone":"(250) 352-1919","fax":"","email":"","website":"https:\/\/www.hydroblok.com\/find-a-dealer\/home-hardware-nelson\/","description_2":"","logo_id":"0","marker_id":"1","is_disabled":"0","open_hours":"{\"mon\":\"0\",\"tue\":\"0\",\"wed\":\"0\",\"thu\":\"0\",\"fri\":\"0\",\"sat\":\"0\",\"sun\":\"0\"}","created_on":"2022-01-25 19:48:42","updated_on":"2022-05-23 03:49:51","ordr":"0","featured":null,"brand":null,"product":null,"pending":null,"slug":"home-hardware-nelson-nelson","custom":null},
{"id":"119","title":"Floor Store Salmon Arm","description":"","street":"241  5th St SW","city":"Salmon Arm","state":"BC","postal_code":"V1E 1S9","country":"38","lat":"50.698535","lng":"-119.291987","phone":"(250) 832-1944","fax":"","email":"","website":"https:\/\/www.hydroblok.com\/find-a-dealer\/floor-store-salmon-arm\/","description_2":"","logo_id":"0","marker_id":"1","is_disabled":"0","open_hours":"{\"mon\":\"0\",\"tue\":\"0\",\"wed\":\"0\",\"thu\":\"0\",\"fri\":\"0\",\"sat\":\"0\",\"sun\":\"0\"}","created_on":"2022-01-25 21:28:40","updated_on":"2022-05-23 03:49:22","ordr":"0","featured":null,"brand":null,"product":null,"pending":null,"slug":"floor-store-salmon-arm-salmon-arm","custom":null},
{"id":"120","title":"Northern Capital Wood Products","description":"","street":"381 McAloney Road, Unit C","city":"Prince George","state":"BC","postal_code":"V2K 4L2","country":"38","lat":"53.92837069999999","lng":"-122.7742467","phone":"(250) 564-6171","fax":"","email":"ncwpwood@telus.net","website":"https:\/\/www.hydroblok.com\/find-a-dealer\/northern-capital-wood-products\/","description_2":"","logo_id":"0","marker_id":"1","is_disabled":"0","open_hours":"{\"mon\":\"0\",\"tue\":\"0\",\"wed\":\"0\",\"thu\":\"0\",\"fri\":\"0\",\"sat\":\"0\",\"sun\":\"0\"}","created_on":"2022-01-25 21:41:41","updated_on":"2023-12-05 21:35:16","ordr":"0","featured":null,"brand":null,"product":null,"pending":null,"slug":"northern-capital-wood-products-prince-george","custom":null},
{"id":"121","title":"Canada Flooring Enterprises Ltd. ","description":"","street":"9049 Quartz Road","city":"Whitehorse","state":"YT","postal_code":"Y1A 4Z5","country":"38","lat":"60.7367903","lng":"-135.0805894","phone":"(867) 667-7290","fax":"","email":"","website":"https:\/\/www.hydroblok.com\/find-a-dealer\/canada-flooring-enterprises-ltd\/","description_2":"","logo_id":"0","marker_id":"1","is_disabled":"0","open_hours":"{\"mon\":\"0\",\"tue\":\"0\",\"wed\":\"0\",\"thu\":\"0\",\"fri\":\"0\",\"sat\":\"0\",\"sun\":\"0\"}","created_on":"2022-01-25 21:43:29","updated_on":"2022-05-23 03:48:13","ordr":"0","featured":null,"brand":null,"product":null,"pending":null,"slug":"canada-flooring-enterprises-ltd-whitehorse","custom":null},
{"id":"122","title":"G&J Design Flooring","description":"","street":"1295 Hwy 97 N","city":"Quesnel","state":"BC","postal_code":"V2J 2Y5","country":"38","lat":"52.9952689","lng":"-122.509518","phone":"250-992-2272","fax":"","email":"","website":"https:\/\/www.hydroblok.com\/find-a-dealer\/gj-design-flooring\/","description_2":"","logo_id":"0","marker_id":"1","is_disabled":"0","open_hours":"{\"mon\":\"0\",\"tue\":\"0\",\"wed\":\"0\",\"thu\":\"0\",\"fri\":\"0\",\"sat\":\"0\",\"sun\":\"0\"}","created_on":"2022-01-25 21:46:40","updated_on":"2022-05-23 03:47:44","ordr":"0","featured":null,"brand":null,"product":null,"pending":null,"slug":"g-j-design-flooring-quesnel","custom":null},
{"id":"123","title":"The Tile Guy Flooring LTD. ","description":"","street":"4413-29th Street","city":"Vernon","state":"BC","postal_code":"V1T 5B7","country":"38","lat":"50.2771766","lng":"-119.2696361","phone":"250-545-8453","fax":"","email":"","website":"https:\/\/www.hydroblok.com\/find-a-dealer\/the-tile-guy-flooring-ltd\/","description_2":"","logo_id":"0","marker_id":"1","is_disabled":"0","open_hours":"{\"mon\":\"0\",\"tue\":\"0\",\"wed\":\"0\",\"thu\":\"0\",\"fri\":\"0\",\"sat\":\"0\",\"sun\":\"0\"}","created_on":"2022-01-25 21:48:52","updated_on":"2022-05-23 03:46:39","ordr":"0","featured":null,"brand":null,"product":null,"pending":null,"slug":"the-tile-guy-flooring-ltd-vernon","custom":null},
{"id":"124","title":"Southwest Flooring & Supply ","description":"","street":"1102 Chief Mountain Ave, Bay 100\/200","city":"Pincher Creek","state":"AB","postal_code":"T0K 1W0","country":"38","lat":"49.5002815","lng":"-113.9438182","phone":"(403) 308-7050","fax":"","email":"","website":"https:\/\/www.hydroblok.com\/find-a-dealer\/southwest-flooring-supply\/","description_2":"","logo_id":"0","marker_id":"1","is_disabled":"0","open_hours":"{\"mon\":\"0\",\"tue\":\"0\",\"wed\":\"0\",\"thu\":\"0\",\"fri\":\"0\",\"sat\":\"0\",\"sun\":\"0\"}","created_on":"2022-01-25 21:51:09","updated_on":"2022-05-23 03:46:06","ordr":"0","featured":null,"brand":null,"product":null,"pending":null,"slug":"southwest-flooring-supply-pincher-creek","custom":null},
{"id":"125","title":"The Flooring Hub","description":"","street":"5137-26th Street","city":"Vernon","state":"BC","postal_code":"V1T 8G4","country":"38","lat":"50.28440080000001","lng":"-119.2661196","phone":"(778) 475-7700","fax":"","email":"","website":"https:\/\/www.hydroblok.com\/find-a-dealer\/the-flooring-hub\/","description_2":"","logo_id":"0","marker_id":"1","is_disabled":"0","open_hours":"{\"mon\":\"0\",\"tue\":\"0\",\"wed\":\"0\",\"thu\":\"0\",\"fri\":\"0\",\"sat\":\"0\",\"sun\":\"0\"}","created_on":"2022-01-25 21:54:29","updated_on":"2022-05-23 03:45:13","ordr":"0","featured":null,"brand":null,"product":null,"pending":null,"slug":"the-flooring-hub-vernon","custom":null},
{"id":"126","title":"Pacific Coast Floor Coverings Inc. ","description":"","street":"2374 Millstream Rd.","city":"Victoria","state":"BC","postal_code":"V9B 3R3","country":"38","lat":"48.4628323","lng":"-123.4990989","phone":"(250) 474-0411","fax":"","email":"","website":"https:\/\/www.hydroblok.com\/find-a-dealer\/pacific-coast-floor-coverings-inc\/","description_2":"","logo_id":"0","marker_id":"1","is_disabled":"0","open_hours":"{\"mon\":\"0\",\"tue\":\"0\",\"wed\":\"0\",\"thu\":\"0\",\"fri\":\"0\",\"sat\":\"0\",\"sun\":\"0\"}","created_on":"2022-01-25 21:55:39","updated_on":"2022-05-23 03:44:36","ordr":"0","featured":null,"brand":null,"product":null,"pending":null,"slug":"pacific-coast-floor-coverings-inc-victoria","custom":null},
{"id":"127","title":"Prodigy Interiors Inc. ","description":"","street":"191 Eversyde Circle SW","city":"Calgary","state":"AB","postal_code":"T2Y 4T4","country":"38","lat":"50.9088998","lng":"-114.1086631","phone":"403-589-4419","fax":"","email":"","website":"https:\/\/www.hydroblok.com\/find-a-dealer\/prodigy-interiors-inc\/","description_2":"","logo_id":"0","marker_id":"1","is_disabled":"0","open_hours":"{\"mon\":\"0\",\"tue\":\"0\",\"wed\":\"0\",\"thu\":\"0\",\"fri\":\"0\",\"sat\":\"0\",\"sun\":\"0\"}","created_on":"2022-01-25 21:57:50","updated_on":"2022-05-23 03:43:47","ordr":"0","featured":null,"brand":null,"product":null,"pending":null,"slug":"prodigy-interiors-inc-calgary","custom":null},
{"id":"128","title":"Contemporary Bathrooms C\/O Rosedale","description":"","street":"5620 68 Avenue Southeast Bay 2","city":"Calgary","state":"AB","postal_code":"T2C 5L1","country":"38","lat":"50.99511330000001","lng":"-113.9502793","phone":"(403) 291-2200","fax":"","email":"","website":"https:\/\/www.hydroblok.com\/find-a-dealer\/contemporary-bathrooms-c-o-rosedale\/","description_2":"","logo_id":"0","marker_id":"1","is_disabled":"0","open_hours":"{\"mon\":\"0\",\"tue\":\"0\",\"wed\":\"0\",\"thu\":\"0\",\"fri\":\"0\",\"sat\":\"0\",\"sun\":\"0\"}","created_on":"2022-01-25 21:59:07","updated_on":"2022-05-23 03:42:28","ordr":"0","featured":null,"brand":null,"product":null,"pending":null,"slug":"contemporary-bathrooms-c-o-rosedale-calgary","custom":null},
{"id":"129","title":"Tileworks & Frontier Irrigation ","description":"","street":"1702 2 Ave S","city":"Lethbridge","state":"AB","postal_code":"T1J 0G3","country":"38","lat":"49.69734829999999","lng":"-112.8174818","phone":"403-328-6197","fax":"","email":"","website":"https:\/\/www.hydroblok.com\/find-a-dealer\/tileworks-frontier-irrigation\/","description_2":"","logo_id":"0","marker_id":"1","is_disabled":"0","open_hours":"{\"mon\":\"0\",\"tue\":\"0\",\"wed\":\"0\",\"thu\":\"0\",\"fri\":\"0\",\"sat\":\"0\",\"sun\":\"0\"}","created_on":"2022-01-25 22:01:02","updated_on":"2022-05-23 03:39:37","ordr":"0","featured":null,"brand":null,"product":null,"pending":null,"slug":"tileworks-frontier-irrigation-lethbridge","custom":null},
{"id":"130","title":"Best Tile & Wood II Inc","description":"","street":"69 State Rt. 31,","city":"Flemigton","state":"NJ","postal_code":"08822","country":"223","lat":"40.5131239","lng":"-74.8519467","phone":"(908) 782-6707","fax":"","email":"","website":"https:\/\/www.hydroblok.com\/find-a-dealer\/best-tile-wood-ii-inc\/","description_2":"","logo_id":"0","marker_id":"1","is_disabled":"0","open_hours":"{\"mon\":\"0\",\"tue\":\"0\",\"wed\":\"0\",\"thu\":\"0\",\"fri\":\"0\",\"sat\":\"0\",\"sun\":\"0\"}","created_on":"2022-03-27 13:35:01","updated_on":"2022-05-23 03:38:46","ordr":"0","featured":null,"brand":null,"product":null,"pending":null,"slug":"best-tile-wood-ii-inc-flemigton","custom":null},
{"id":"131","title":"Buffalo Glass Block","description":"","street":"520 Hinman Ave","city":"Buffalo","state":"NY","postal_code":"14216","country":"223","lat":"42.9562759","lng":"-78.8885749","phone":" (716) 873-3553","fax":"","email":"","website":"https:\/\/www.hydroblok.com\/find-a-dealer\/buffalo-glass-block\/","description_2":"","logo_id":"0","marker_id":"1","is_disabled":"0","open_hours":"{\"mon\":\"0\",\"tue\":\"0\",\"wed\":\"0\",\"thu\":\"0\",\"fri\":\"0\",\"sat\":\"0\",\"sun\":\"0\"}","created_on":"2022-03-27 13:40:55","updated_on":"2022-05-23 03:38:18","ordr":"0","featured":null,"brand":null,"product":null,"pending":null,"slug":"buffalo-glass-block-buffalo","custom":null},
{"id":"132","title":"Coast Tile and Marble","description":"","street":"3168 Fire Rd","city":"Egg Harbor Township","state":"NJ","postal_code":"08234","country":"223","lat":"39.3869732","lng":"-74.5678396","phone":"(609) 646-9346","fax":"","email":"","website":"https:\/\/www.hydroblok.com\/find-a-dealer\/coast-tile-and-marble\/","description_2":"","logo_id":"0","marker_id":"1","is_disabled":"0","open_hours":"{\"mon\":\"0\",\"tue\":\"0\",\"wed\":\"0\",\"thu\":\"0\",\"fri\":\"0\",\"sat\":\"0\",\"sun\":\"0\"}","created_on":"2022-03-27 13:44:32","updated_on":"2022-05-23 03:37:44","ordr":"0","featured":null,"brand":null,"product":null,"pending":null,"slug":"coast-tile-and-marble-egg-harbor-township","custom":null},
{"id":"133","title":"Daltile Allentown","description":"","street":"904 Marcon Blvd","city":"Allentown","state":"PA","postal_code":"18109","country":"223","lat":"40.6391816","lng":"-75.4467628","phone":"(610) 266-6688","fax":"","email":"","website":"https:\/\/www.hydroblok.com\/find-a-dealer\/daltile-allentown\/","description_2":"","logo_id":"0","marker_id":"1","is_disabled":"0","open_hours":"{\"mon\":\"0\",\"tue\":\"0\",\"wed\":\"0\",\"thu\":\"0\",\"fri\":\"0\",\"sat\":\"0\",\"sun\":\"0\"}","created_on":"2022-03-27 13:47:43","updated_on":"2022-05-23 03:34:24","ordr":"0","featured":null,"brand":null,"product":null,"pending":null,"slug":"daltile-allentown-allentown","custom":null},
{"id":"134","title":"Daltile Baton Rouge","description":"","street":"12037 Airline Hwy","city":"Baton Rouge","state":"LA","postal_code":"70817","country":"223","lat":"30.3918226","lng":"-91.0475155","phone":"(225) 751-3194","fax":"","email":"","website":"https:\/\/www.hydroblok.com\/find-a-dealer\/daltile-baton-rouge\/","description_2":"","logo_id":"0","marker_id":"1","is_disabled":"0","open_hours":"{\"mon\":\"0\",\"tue\":\"0\",\"wed\":\"0\",\"thu\":\"0\",\"fri\":\"0\",\"sat\":\"0\",\"sun\":\"0\"}","created_on":"2022-03-27 13:55:52","updated_on":"2022-05-23 03:33:48","ordr":"0","featured":null,"brand":null,"product":null,"pending":null,"slug":"daltile-baton-rouge-baton-rouge","custom":null},
{"id":"135","title":"Daltile Daytona","description":"","street":"703 Samms Ave Ste C","city":"Port Orange","state":"FL","postal_code":"32129","country":"223","lat":"29.1396331","lng":"-80.99810219999999","phone":"(386) 767-9561","fax":"","email":"","website":"https:\/\/www.hydroblok.com\/find-a-dealer\/daltile-daytona\/","description_2":"","logo_id":"0","marker_id":"1","is_disabled":"0","open_hours":"{\"mon\":\"0\",\"tue\":\"0\",\"wed\":\"0\",\"thu\":\"0\",\"fri\":\"0\",\"sat\":\"0\",\"sun\":\"0\"}","created_on":"2022-03-27 14:48:46","updated_on":"2022-05-23 03:33:13","ordr":"0","featured":null,"brand":null,"product":null,"pending":null,"slug":"daltile-daytona-port-orange","custom":null},
{"id":"136","title":"Daltile Fayetteville","description":"","street":"373-A Agnes Dr","city":"Tontitown","state":"AR","postal_code":"72762","country":"223","lat":"36.1725488","lng":"-94.22634599999999","phone":"(479) 361-5825","fax":"","email":"","website":"https:\/\/www.hydroblok.com\/find-a-dealer\/daltile-fayetteville\/","description_2":"","logo_id":"0","marker_id":"1","is_disabled":"0","open_hours":"{\"mon\":\"0\",\"tue\":\"0\",\"wed\":\"0\",\"thu\":\"0\",\"fri\":\"0\",\"sat\":\"0\",\"sun\":\"0\"}","created_on":"2022-03-27 14:55:21","updated_on":"2022-05-23 03:32:38","ordr":"0","featured":null,"brand":null,"product":null,"pending":null,"slug":"daltile-fayetteville-tontitown","custom":null},
{"id":"137","title":"Daltile Jacksonville","description":"","street":"9446 Philips Hwy","city":"Jacksonville","state":"FL","postal_code":"32256","country":"223","lat":"30.1947467","lng":"-81.569159","phone":"904-262-0444","fax":"","email":"","website":"https:\/\/www.hydroblok.com\/find-a-dealer\/daltile-jacksonville\/","description_2":"","logo_id":"0","marker_id":"1","is_disabled":"0","open_hours":"{\"mon\":\"0\",\"tue\":\"0\",\"wed\":\"0\",\"thu\":\"0\",\"fri\":\"0\",\"sat\":\"0\",\"sun\":\"0\"}","created_on":"2022-03-27 14:57:29","updated_on":"2022-05-23 03:31:41","ordr":"0","featured":null,"brand":null,"product":null,"pending":null,"slug":"daltile-jacksonville-jacksonville","custom":null},
{"id":"138","title":"Daltile Salisbury","description":"","street":"2257 Northwood Dr Suite A","city":"SALISBURY","state":"MD","postal_code":"21801","country":"223","lat":"38.4052888","lng":"-75.5765661","phone":"(410) 546-1015","fax":"","email":"","website":"https:\/\/www.hydroblok.com\/find-a-dealer\/daltile-salisbury\/","description_2":"","logo_id":"0","marker_id":"1","is_disabled":"0","open_hours":"{\"mon\":\"0\",\"tue\":\"0\",\"wed\":\"0\",\"thu\":\"0\",\"fri\":\"0\",\"sat\":\"0\",\"sun\":\"0\"}","created_on":"2022-03-27 15:00:36","updated_on":"2022-05-23 03:31:08","ordr":"0","featured":null,"brand":null,"product":null,"pending":null,"slug":"daltile-salisbury-salisbury","custom":null},
{"id":"139","title":"Daltile Mechanicsburg","description":"","street":"4750 WESTPORT DR STE 100","city":"MECHANICSBURG","state":"PA","postal_code":"17055","country":"223","lat":"40.2056662","lng":"-76.954314","phone":"(717) 795-0154","fax":"","email":"","website":"https:\/\/www.hydroblok.com\/find-a-dealer\/daltile-mechanicsburg\/","description_2":"","logo_id":"0","marker_id":"1","is_disabled":"0","open_hours":"{\"mon\":\"0\",\"tue\":\"0\",\"wed\":\"0\",\"thu\":\"0\",\"fri\":\"0\",\"sat\":\"0\",\"sun\":\"0\"}","created_on":"2022-03-27 15:02:51","updated_on":"2022-05-23 03:30:10","ordr":"0","featured":null,"brand":null,"product":null,"pending":null,"slug":"daltile-mechanicsburg-mechanicsburg","custom":null},
{"id":"140","title":"Daltile Pittsburgh","description":"","street":"104 Parkway View Dr","city":"Pittsburgh","state":"PA","postal_code":"15205","country":"223","lat":"40.43275450000001","lng":"-80.13205710000001","phone":"(412) 787-2040","fax":"","email":"","website":"https:\/\/www.hydroblok.com\/find-a-dealer\/daltile-pittsburgh\/","description_2":"","logo_id":"0","marker_id":"1","is_disabled":"0","open_hours":"{\"mon\":\"0\",\"tue\":\"0\",\"wed\":\"0\",\"thu\":\"0\",\"fri\":\"0\",\"sat\":\"0\",\"sun\":\"0\"}","created_on":"2022-03-27 15:07:49","updated_on":"2022-05-23 03:29:44","ordr":"0","featured":null,"brand":null,"product":null,"pending":null,"slug":"daltile-pittsburgh-pittsburgh","custom":null},
{"id":"141","title":"Daltile Sarasota ","description":"","street":"7450 26th Court East Unit 112","city":"Sarasota","state":"FL","postal_code":"34243","country":"223","lat":"27.4082776","lng":"-82.5320243","phone":"(941) 355-2954","fax":"","email":"","website":"https:\/\/www.hydroblok.com\/find-a-dealer\/daltile-sarasota\/","description_2":"","logo_id":"0","marker_id":"1","is_disabled":"0","open_hours":"{\"mon\":\"0\",\"tue\":\"0\",\"wed\":\"0\",\"thu\":\"0\",\"fri\":\"0\",\"sat\":\"0\",\"sun\":\"0\"}","created_on":"2022-03-27 15:10:31","updated_on":"2022-05-23 03:29:11","ordr":"0","featured":null,"brand":null,"product":null,"pending":null,"slug":"daltile-sarasota-sarasota","custom":null},
{"id":"142","title":"Daltile Springfield","description":"","street":"2710 S Austin Ave","city":"Springfield","state":"MO","postal_code":"65807","country":"223","lat":"37.1661693","lng":"-93.3241365","phone":"(417) 883-4600","fax":"","email":"","website":"https:\/\/www.hydroblok.com\/find-a-dealer\/daltile-springfield\/","description_2":"","logo_id":"0","marker_id":"1","is_disabled":"0","open_hours":"{\"mon\":\"0\",\"tue\":\"0\",\"wed\":\"0\",\"thu\":\"0\",\"fri\":\"0\",\"sat\":\"0\",\"sun\":\"0\"}","created_on":"2022-03-27 15:20:44","updated_on":"2022-05-23 03:28:49","ordr":"0","featured":null,"brand":null,"product":null,"pending":null,"slug":"daltile-springfield-springfield","custom":null},
{"id":"143","title":"Emser Tile -  Los Angeles","description":"","street":"8431 Santa Monica Blvd","city":"Los Angeles","state":"CA","postal_code":"90069","country":"223","lat":"34.0909183","lng":"-118.3737241","phone":"(502) 962-7255","fax":"","email":"","website":"https:\/\/www.hydroblok.com\/find-a-dealer\/emser-tile-los-angeles\/","description_2":"","logo_id":"0","marker_id":"1","is_disabled":"0","open_hours":"{\"mon\":\"0\",\"tue\":\"0\",\"wed\":\"0\",\"thu\":\"0\",\"fri\":\"0\",\"sat\":\"0\",\"sun\":\"0\"}","created_on":"2022-03-27 15:29:39","updated_on":"2022-05-23 03:28:19","ordr":"0","featured":null,"brand":null,"product":null,"pending":null,"slug":"emser-tile-los-angeles-los-angeles","custom":null},
{"id":"144","title":"Five Star Bath Solutions","description":"","street":"6008 E 1245 Mile Road","city":"Warren","state":"MI","postal_code":"48092","country":"223","lat":"42.47673","lng":"-83.08448299999999","phone":"","fax":"","email":"","website":"https:\/\/www.hydroblok.com\/find-a-dealer\/five-star-bath-solutions\/","description_2":"","logo_id":"0","marker_id":"1","is_disabled":"1","open_hours":"{\"mon\":\"0\",\"tue\":\"0\",\"wed\":\"0\",\"thu\":\"0\",\"fri\":\"0\",\"sat\":\"0\",\"sun\":\"0\"}","created_on":"2022-03-27 15:33:51","updated_on":"2022-05-23 03:27:48","ordr":"0","featured":null,"brand":null,"product":null,"pending":null,"slug":"five-star-bath-solutions-warren","custom":null},
{"id":"146","title":"Hunt Valley Tile & Stone","description":"","street":"11110 Pepper Rd Suite D","city":"Hunt Valley","state":"MD","postal_code":"21031","country":"223","lat":"39.4895579","lng":"-76.6549296","phone":"(410)-771-6441","fax":"","email":"","website":"hhttps:\/\/www.hydroblok.com\/find-a-dealer\/hunt-valley-tile-stone\/","description_2":"","logo_id":"0","marker_id":"1","is_disabled":"0","open_hours":"{\"mon\":\"0\",\"tue\":\"0\",\"wed\":\"0\",\"thu\":\"0\",\"fri\":\"0\",\"sat\":\"0\",\"sun\":\"0\"}","created_on":"2022-03-27 15:58:50","updated_on":"2022-05-23 03:26:45","ordr":"0","featured":null,"brand":null,"product":null,"pending":null,"slug":"hunt-valley-tile-stone-hunt-valley","custom":null},
{"id":"147","title":"Natural Stone and Tile","description":"","street":"8875 Bash St","city":"Indianapolis","state":"IN","postal_code":"46256","country":"223","lat":"39.9163657","lng":"-86.0410529","phone":"(317) 863-5926","fax":"","email":"","website":"https:\/\/www.hydroblok.com\/find-a-dealer\/natural-stone-and-tile\/","description_2":"","logo_id":"0","marker_id":"1","is_disabled":"0","open_hours":"{\"mon\":\"0\",\"tue\":\"0\",\"wed\":\"0\",\"thu\":\"0\",\"fri\":\"0\",\"sat\":\"0\",\"sun\":\"0\"}","created_on":"2022-03-27 16:00:57","updated_on":"2022-05-23 03:25:44","ordr":"0","featured":null,"brand":null,"product":null,"pending":null,"slug":"natural-stone-and-tile-indianapolis","custom":null},
{"id":"148","title":"Minnesota Tile & Stone - Lakeville","description":"","street":"17615 Kenrick Ave.","city":"Lakeville","state":"MN","postal_code":"55044","country":"223","lat":"44.6939475","lng":"-93.2881524","phone":"(952) 898-1960","fax":"","email":"","website":"https:\/\/www.hydroblok.com\/find-a-dealer\/minnesota-tile-stone\/","description_2":"","logo_id":"0","marker_id":"1","is_disabled":"on","open_hours":"{\"mon\":[\"09:30 AM - 06:30 PM\"],\"tue\":[\"09:30 AM - 06:30 PM\"],\"wed\":[\"09:30 AM - 06:30 PM\"],\"thu\":[\"09:30 AM - 06:30 PM\"],\"fri\":[\"09:30 AM - 06:30 PM\"],\"sat\":[\"09:30 AM - 06:30 PM\"],\"sun\":[\"09:30 AM - 06:30 PM\"]}","created_on":"2022-10-03 19:36:18","updated_on":null,"ordr":"0","featured":null,"brand":null,"product":null,"pending":null,"slug":"minnesota-tile-stone-lakeville-lakeville","custom":null},
{"id":"149","title":"Minnesota Tile & Stone - Plymouth","description":"","street":"1797 Xenium Ln N","city":"Plymouth","state":"MN","postal_code":"55441","country":"223","lat":"44.99871880000001","lng":"-93.45193379999999","phone":"(763) 233-7060","fax":"","email":"","website":"https:\/\/www.hydroblok.com\/find-a-dealer\/minnesota-tile-stone-plymouth\/","description_2":"","logo_id":"0","marker_id":"1","is_disabled":"0","open_hours":"{\"mon\":[\"09:30 AM - 06:30 PM\"],\"tue\":[\"09:30 AM - 06:30 PM\"],\"wed\":[\"09:30 AM - 06:30 PM\"],\"thu\":[\"09:30 AM - 06:30 PM\"],\"fri\":[\"09:30 AM - 06:30 PM\"],\"sat\":[\"09:30 AM - 06:30 PM\"],\"sun\":[\"09:30 AM - 06:30 PM\"]}","created_on":"2022-10-03 19:36:41","updated_on":"2022-10-03 19:43:10","ordr":"0","featured":null,"brand":null,"product":null,"pending":null,"slug":"minnesota-tile-stone-plymouth-plymouth","custom":null},
{"id":"150","title":"Minnesota Tile & Stone - Woodbury","description":"","street":"9703 Hudson Rd","city":"Woodbury","state":"MN","postal_code":"55125","country":"223","lat":"44.94634749999999","lng":"-92.9100277","phone":"(651) 730-0447","fax":"","email":"","website":"https:\/\/www.hydroblok.com\/find-a-dealer\/minnesota-tile-stone-woodbury\/","description_2":"","logo_id":"0","marker_id":"1","is_disabled":"0","open_hours":"{\"mon\":[\"09:30 AM - 06:30 PM\"],\"tue\":[\"09:30 AM - 06:30 PM\"],\"wed\":[\"09:30 AM - 06:30 PM\"],\"thu\":[\"09:30 AM - 06:30 PM\"],\"fri\":[\"09:30 AM - 06:30 PM\"],\"sat\":[\"09:30 AM - 06:30 PM\"],\"sun\":[\"09:30 AM - 06:30 PM\"]}","created_on":"2022-10-03 19:38:14","updated_on":"2022-10-03 19:43:00","ordr":"0","featured":null,"brand":null,"product":null,"pending":null,"slug":"minnesota-tile-stone-woodbury-woodbury","custom":null},
{"id":"151","title":"Minnesota Tile & Stone - Minnetonka","description":"","street":"6001 Culligan Way","city":"Minnetonka","state":"MN","postal_code":"55345","country":"223","lat":"44.8943634","lng":"-93.44817809999999","phone":"(952) 345-9425","fax":"","email":"","website":"https:\/\/www.hydroblok.com\/find-a-dealer\/minnesota-tile-stone-minnetonka\/","description_2":"","logo_id":"0","marker_id":"1","is_disabled":"0","open_hours":"{\"mon\":[\"09:30 AM - 06:30 PM\"],\"tue\":[\"09:30 AM - 06:30 PM\"],\"wed\":[\"09:30 AM - 06:30 PM\"],\"thu\":[\"09:30 AM - 06:30 PM\"],\"fri\":[\"09:30 AM - 06:30 PM\"],\"sat\":[\"09:30 AM - 06:30 PM\"],\"sun\":[\"09:30 AM - 06:30 PM\"]}","created_on":"2022-10-03 19:39:36","updated_on":"2022-10-03 19:42:47","ordr":"0","featured":null,"brand":null,"product":null,"pending":null,"slug":"minnesota-tile-stone-minnetonka-minnetonka","custom":null},
{"id":"152","title":"Tool Republic","description":"","street":"2310 St. Laurent Blvd, Unit 305,","city":"Ottawa","state":"ON","postal_code":"K1G 5H9","country":"38","lat":"45.3852831","lng":"-75.619677","phone":"(613) 523-5555","fax":"","email":"","website":"https:\/\/www.hydroblok.com\/find-a-dealer\/tool-republic\/","description_2":"","logo_id":"0","marker_id":"1","is_disabled":"1","open_hours":"{\"mon\":[\"09:30 AM - 06:30 PM\"],\"tue\":[\"09:30 AM - 06:30 PM\"],\"wed\":[\"09:30 AM - 06:30 PM\"],\"thu\":[\"09:30 AM - 06:30 PM\"],\"fri\":[\"09:30 AM - 06:30 PM\"],\"sat\":[\"09:30 AM - 06:30 PM\"],\"sun\":[\"09:30 AM - 06:30 PM\"]}","created_on":"2022-10-03 19:46:32","updated_on":"2023-10-27 02:20:22","ordr":"0","featured":null,"brand":null,"product":null,"pending":null,"slug":"tool-republic-ottawa","custom":null},
{"id":"153","title":"Village Tile","description":"","street":"6306 Main St","city":"Stouffville","state":"ON","postal_code":"L4A 1G8","country":"38","lat":"43.9717743","lng":"-79.2457977","phone":"(905) 591-8453","fax":"","email":"","website":"https:\/\/www.hydroblok.com\/find-a-dealer\/village-tile\/","description_2":"","logo_id":"0","marker_id":"1","is_disabled":"0","open_hours":"{\"mon\":[\"09:30 AM - 06:30 PM\"],\"tue\":[\"09:30 AM - 06:30 PM\"],\"wed\":[\"09:30 AM - 06:30 PM\"],\"thu\":[\"09:30 AM - 06:30 PM\"],\"fri\":[\"09:30 AM - 06:30 PM\"],\"sat\":[\"09:30 AM - 06:30 PM\"],\"sun\":[\"09:30 AM - 06:30 PM\"]}","created_on":"2022-10-03 19:48:29","updated_on":"2022-10-03 19:49:30","ordr":"0","featured":null,"brand":null,"product":null,"pending":null,"slug":"village-tile-stouffville","custom":null},
{"id":"154","title":"Sage Kitchen & Bath","description":"","street":" 12 Bram Court, Unit 9","city":"Brampton","state":"ON","postal_code":"L6W 3R6","country":"38","lat":"43.6842257","lng":"-79.71492889999999","phone":"(647)280-6917","fax":"","email":"info@SageKitchenandBath.ca","website":"https:\/\/www.hydroblok.com\/find-a-dealer\/sage-kitchen-bath\/","description_2":"","logo_id":"0","marker_id":"1","is_disabled":"0","open_hours":"{\"mon\":[\"09:30 AM - 06:30 PM\"],\"tue\":[\"09:30 AM - 06:30 PM\"],\"wed\":[\"09:30 AM - 06:30 PM\"],\"thu\":[\"09:30 AM - 06:30 PM\"],\"fri\":[\"09:30 AM - 06:30 PM\"],\"sat\":[\"09:30 AM - 06:30 PM\"],\"sun\":[\"09:30 AM - 06:30 PM\"]}","created_on":"2022-10-07 20:44:08","updated_on":"2023-07-14 10:55:14","ordr":"0","featured":null,"brand":null,"product":null,"pending":null,"slug":"sage-kitchen-bath-brampton","custom":null},
{"id":"155","title":"Daltile West Atlanta","description":"","street":"3021 Olympic Industrial Dr SE # 100","city":"Atlanta","state":"GA","postal_code":"30339","country":"223","lat":"33.8326916","lng":"-84.4658265","phone":"(404) 355-3180","fax":"","email":"","website":"https:\/\/www.hydroblok.com\/find-a-dealer\/daltile-west-atlanta\/","description_2":"","logo_id":"0","marker_id":"1","is_disabled":"0","open_hours":"{\"mon\":\"0\",\"tue\":\"0\",\"wed\":\"0\",\"thu\":\"0\",\"fri\":\"0\",\"sat\":\"0\",\"sun\":\"0\"}","created_on":"2022-10-09 02:54:08","updated_on":"2023-07-14 10:40:37","ordr":"0","featured":null,"brand":null,"product":null,"pending":null,"slug":"daltile-west-atlanta-atlanta","custom":null},
{"id":"156","title":"Daltile Charlotte","description":"","street":"405 Forsyth Hall Drive","city":"Charlotte ","state":"NC","postal_code":"28273","country":"223","lat":"35.1197959","lng":"-80.9140486","phone":"(704) 588-0153","fax":"","email":"","website":"https:\/\/www.hydroblok.com\/find-a-dealer\/daltile-charlotte\/","description_2":"","logo_id":"0","marker_id":"1","is_disabled":"0","open_hours":"{\"mon\":\"0\",\"tue\":\"0\",\"wed\":\"0\",\"thu\":\"0\",\"fri\":\"0\",\"sat\":\"0\",\"sun\":\"0\"}","created_on":"2022-10-09 02:55:30","updated_on":"2023-07-14 10:36:37","ordr":"0","featured":null,"brand":null,"product":null,"pending":null,"slug":"daltile-charlotte-charlotte","custom":null},
{"id":"157","title":"Daltile Fayetteville","description":"","street":"1211 Ireland Dr. Ste # 14","city":"Fayetteville","state":"NC","postal_code":"28304","country":"223","lat":"35.0418624","lng":"-78.9463251","phone":"(910) 323-3004","fax":"","email":"","website":"https:\/\/www.hydroblok.com\/find-a-dealer\/daltile-fayetteville\/","description_2":"","logo_id":"0","marker_id":"1","is_disabled":"0","open_hours":"{\"mon\":\"0\",\"tue\":\"0\",\"wed\":\"0\",\"thu\":\"0\",\"fri\":\"0\",\"sat\":\"0\",\"sun\":\"0\"}","created_on":"2022-10-09 03:00:02","updated_on":"2023-07-14 10:35:29","ordr":"0","featured":null,"brand":null,"product":null,"pending":null,"slug":"daltile-fayetteville-fayetteville","custom":null},
{"id":"158","title":"Daltile North Little Rock","description":"","street":"9460 Maumelle Blvd. ","city":"North Little Rock","state":"AR","postal_code":"72113","country":"223","lat":"34.8176872","lng":"-92.3660649","phone":"(501) 812-4800","fax":"","email":"","website":"https:\/\/www.hydroblok.com\/find-a-dealer\/daltile-north-little-rock\/","description_2":"","logo_id":"0","marker_id":"1","is_disabled":"0","open_hours":"{\"mon\":\"0\",\"tue\":\"0\",\"wed\":\"0\",\"thu\":\"0\",\"fri\":\"0\",\"sat\":\"0\",\"sun\":\"0\"}","created_on":"2022-10-09 03:03:59","updated_on":"2023-07-14 10:29:53","ordr":"0","featured":null,"brand":null,"product":null,"pending":null,"slug":"daltile-north-little-rock-north-little-rock","custom":null},
{"id":"159","title":"Daltile Baton Rouge","description":"","street":"12037 Airline Hwy","city":"Baton Rouge ","state":"LA","postal_code":"70816","country":"223","lat":"30.3918226","lng":"-91.0475155","phone":"(225) 751-3194","fax":"","email":"","website":"https:\/\/www.hydroblok.com\/find-a-dealer\/daltile-baton-rouge\/","description_2":"","logo_id":"0","marker_id":"1","is_disabled":"0","open_hours":"{\"mon\":\"0\",\"tue\":\"0\",\"wed\":\"0\",\"thu\":\"0\",\"fri\":\"0\",\"sat\":\"0\",\"sun\":\"0\"}","created_on":"2022-10-09 03:05:58","updated_on":"2023-07-14 10:28:28","ordr":"0","featured":null,"brand":null,"product":null,"pending":null,"slug":"daltile-baton-rouge-baton-rouge","custom":null},
{"id":"161","title":"Daltile Ridgeland","description":"","street":"108 East State St.","city":"Ridgeland","state":"MS","postal_code":"39157","country":"223","lat":"32.4083337","lng":"-90.13977249999999","phone":"(601) 853-2714","fax":"","email":"","website":"https:\/\/www.hydroblok.com\/find-a-dealer\/daltile-ridgeland\/","description_2":"","logo_id":"0","marker_id":"1","is_disabled":"0","open_hours":"{\"mon\":\"0\",\"tue\":\"0\",\"wed\":\"0\",\"thu\":\"0\",\"fri\":\"0\",\"sat\":\"0\",\"sun\":\"0\"}","created_on":"2022-10-09 03:11:02","updated_on":"2023-07-14 10:26:08","ordr":"0","featured":null,"brand":null,"product":null,"pending":null,"slug":"daltile-ridgeland-ridgeland","custom":null},
{"id":"162","title":"Daltile Springfield","description":"","street":"2710 S. Austin St.","city":"Springfield","state":"MO","postal_code":"65807","country":"223","lat":"37.1661693","lng":"-93.3241365","phone":"(417) 883-4600","fax":"","email":"","website":"https:\/\/www.hydroblok.com\/find-a-dealer\/daltile-springfield\/","description_2":"","logo_id":"0","marker_id":"1","is_disabled":"0","open_hours":"{\"mon\":\"0\",\"tue\":\"0\",\"wed\":\"0\",\"thu\":\"0\",\"fri\":\"0\",\"sat\":\"0\",\"sun\":\"0\"}","created_on":"2022-10-09 03:13:22","updated_on":"2023-07-14 10:25:05","ordr":"0","featured":null,"brand":null,"product":null,"pending":null,"slug":"daltile-springfield-springfield","custom":null},
{"id":"163","title":"Daltile Farmington Hills","description":"","street":"24640 Drake Rd.","city":"Farmington Hills","state":"MI","postal_code":"48335","country":"223","lat":"42.471953","lng":"-83.395523","phone":"(248) 471-7150","fax":"","email":"","website":"https:\/\/www.hydroblok.com\/find-a-dealer\/daltile-farmington-hills\/","description_2":"","logo_id":"0","marker_id":"1","is_disabled":"0","open_hours":"{\"mon\":\"0\",\"tue\":\"0\",\"wed\":\"0\",\"thu\":\"0\",\"fri\":\"0\",\"sat\":\"0\",\"sun\":\"0\"}","created_on":"2022-10-09 03:14:29","updated_on":"2023-07-14 10:26:33","ordr":"0","featured":null,"brand":null,"product":null,"pending":null,"slug":"daltile-farmington-hills-farmington-hills","custom":null},
{"id":"164","title":"Daltile Mechanicsburg","description":"","street":"4750 Westport Drive Ste # 100","city":"Mechanicsburg","state":"PA","postal_code":"17055","country":"223","lat":"40.2056662","lng":"-76.954314","phone":"(717) 795-0154","fax":"","email":"","website":"https:\/\/www.hydroblok.com\/find-a-dealer\/daltile-mechanicsburg\/","description_2":"","logo_id":"0","marker_id":"1","is_disabled":"0","open_hours":"{\"mon\":\"0\",\"tue\":\"0\",\"wed\":\"0\",\"thu\":\"0\",\"fri\":\"0\",\"sat\":\"0\",\"sun\":\"0\"}","created_on":"2022-10-09 03:19:10","updated_on":"2023-07-14 07:17:23","ordr":"0","featured":null,"brand":null,"product":null,"pending":null,"slug":"daltile-mechanicsburg-mechanicsburg","custom":null},
{"id":"165","title":"Daltile Allentown","description":"","street":"904 Marcon Blvd. ","city":"Allentown","state":"PA","postal_code":"18109","country":"223","lat":"40.6391816","lng":"-75.4467628","phone":"(610) 266-6688","fax":"","email":"","website":"https:\/\/www.hydroblok.com\/find-a-dealer\/daltile-allentown\/","description_2":"","logo_id":"0","marker_id":"1","is_disabled":"0","open_hours":"{\"mon\":\"0\",\"tue\":\"0\",\"wed\":\"0\",\"thu\":\"0\",\"fri\":\"0\",\"sat\":\"0\",\"sun\":\"0\"}","created_on":"2022-10-09 03:20:29","updated_on":"2023-07-14 06:37:49","ordr":"0","featured":null,"brand":null,"product":null,"pending":null,"slug":"daltile-allentown-allentown","custom":null},
{"id":"166","title":"Daltile Dayton","description":"","street":"181 Herrod Blvd. Ste # 12","city":"Dayton","state":"NJ","postal_code":"08810","country":"223","lat":"40.3559303","lng":"-74.48822779999999","phone":"(609) 409-7687","fax":"","email":"","website":"https:\/\/www.hydroblok.com\/find-a-dealer\/daltile-daytona\/","description_2":"","logo_id":"0","marker_id":"1","is_disabled":"0","open_hours":"{\"mon\":\"0\",\"tue\":\"0\",\"wed\":\"0\",\"thu\":\"0\",\"fri\":\"0\",\"sat\":\"0\",\"sun\":\"0\"}","created_on":"2022-10-09 03:23:17","updated_on":"2023-07-14 06:35:31","ordr":"0","featured":null,"brand":null,"product":null,"pending":null,"slug":"daltile-dayton-dayton","custom":null},
{"id":"167","title":"Daltile Port Orange","description":"","street":"703 Samms Ave Ste C ","city":"Port Orange","state":"FL","postal_code":"32129","country":"223","lat":"29.1396331","lng":"-80.99810219999999","phone":"(386) 767-9561","fax":"","email":"","website":"https:\/\/www.hydroblok.com\/find-a-dealer\/daltile-port-orange\/","description_2":"","logo_id":"0","marker_id":"1","is_disabled":"0","open_hours":"{\"mon\":\"0\",\"tue\":\"0\",\"wed\":\"0\",\"thu\":\"0\",\"fri\":\"0\",\"sat\":\"0\",\"sun\":\"0\"}","created_on":"2022-10-09 03:24:25","updated_on":"2023-07-14 06:39:02","ordr":"0","featured":null,"brand":null,"product":null,"pending":null,"slug":"daltile-port-orange-port-orange","custom":null},
{"id":"168","title":"Daltile Jacksonville","description":"","street":"9446 Philips Hwy Ste 10","city":"Jacksonville","state":"FL","postal_code":"32256","country":"223","lat":"30.1946964","lng":"-81.56918220000001","phone":"(904) 262-0444","fax":"","email":"","website":"https:\/\/www.hydroblok.com\/find-a-dealer\/daltile-jacksonville\/","description_2":"","logo_id":"0","marker_id":"1","is_disabled":"0","open_hours":"{\"mon\":\"0\",\"tue\":\"0\",\"wed\":\"0\",\"thu\":\"0\",\"fri\":\"0\",\"sat\":\"0\",\"sun\":\"0\"}","created_on":"2022-10-09 03:27:10","updated_on":"2023-07-14 06:32:32","ordr":"0","featured":null,"brand":null,"product":null,"pending":null,"slug":"daltile-jacksonville-jacksonville","custom":null},
{"id":"169","title":"Daltile Miramar Beach","description":"","street":"195 Business Centre Dr. ","city":"Miramar Beach","state":"FL","postal_code":"32550","country":"223","lat":"30.3822527","lng":"-86.3785948","phone":"(850) 837-5508","fax":"","email":"","website":"https:\/\/www.hydroblok.com\/find-a-dealer\/daltile-miramar-beach\/","description_2":"","logo_id":"0","marker_id":"1","is_disabled":"0","open_hours":"{\"mon\":\"0\",\"tue\":\"0\",\"wed\":\"0\",\"thu\":\"0\",\"fri\":\"0\",\"sat\":\"0\",\"sun\":\"0\"}","created_on":"2022-10-09 03:30:54","updated_on":"2023-07-14 06:39:51","ordr":"0","featured":null,"brand":null,"product":null,"pending":null,"slug":"daltile-miramar-beach-miramar-beach","custom":null},
{"id":"170","title":"Daltile Naples","description":"","street":"2900 Horseshoe Dr., South Suite 700","city":"Naples","state":"FL","postal_code":"34104","country":"223","lat":"26.1613883","lng":"-81.7709263","phone":"(239) 643-1823","fax":"","email":"","website":"https:\/\/www.hydroblok.com\/find-a-dealer\/daltile-naples\/","description_2":"","logo_id":"0","marker_id":"1","is_disabled":"0","open_hours":"{\"mon\":\"0\",\"tue\":\"0\",\"wed\":\"0\",\"thu\":\"0\",\"fri\":\"0\",\"sat\":\"0\",\"sun\":\"0\"}","created_on":"2022-10-09 03:34:34","updated_on":"2023-07-14 06:43:12","ordr":"0","featured":null,"brand":null,"product":null,"pending":null,"slug":"daltile-naples-naples","custom":null},
{"id":"171","title":"Daltile Fort Wayne","description":"","street":"6401 Cross Creek Blvd","city":"Fort Wayne","state":"IN","postal_code":"46818","country":"223","lat":"41.1382555","lng":"-85.1682701","phone":"(260)489-8799","fax":"","email":"","website":"https:\/\/www.hydroblok.com\/find-a-dealer\/daltile-fort-wayne\/","description_2":"","logo_id":"0","marker_id":"1","is_disabled":"0","open_hours":"{\"mon\":\"0\",\"tue\":\"0\",\"wed\":\"0\",\"thu\":\"0\",\"fri\":\"0\",\"sat\":\"0\",\"sun\":\"0\"}","created_on":"2022-10-20 17:30:17","updated_on":"2023-07-14 06:54:20","ordr":"0","featured":null,"brand":null,"product":null,"pending":null,"slug":"daltile-fort-wayne-fort-wayne","custom":null},
{"id":"172","title":"BuildMyPlace","description":"","street":"2900 Fern Valley Rd","city":"Louisville","state":"KY","postal_code":"40213","country":"223","lat":"38.1557367","lng":"-85.7106962","phone":"(740) 697-5223","fax":"","email":"","website":"https:\/\/www.hydroblok.com\/find-a-dealer\/build-my-place\/","description_2":"","logo_id":"0","marker_id":"1","is_disabled":"0","open_hours":"{\"mon\":\"0\",\"tue\":\"0\",\"wed\":\"0\",\"thu\":\"0\",\"fri\":\"0\",\"sat\":\"0\",\"sun\":\"0\"}","created_on":"2022-10-20 20:08:10","updated_on":"2023-07-14 07:12:12","ordr":"0","featured":null,"brand":null,"product":null,"pending":null,"slug":"buildmyplace-louisville","custom":null},
{"id":"173","title":"Daltile Mesquite","description":"","street":"4400 US HWY 80 E, STE 140","city":"Mesquite","state":"TX","postal_code":"75149","country":"223","lat":"32.7958512","lng":"-96.6659784","phone":"(972) 613-4711","fax":"","email":"","website":"","description_2":"","logo_id":"0","marker_id":"1","is_disabled":"0","open_hours":"{\"mon\":\"0\",\"tue\":\"0\",\"wed\":\"0\",\"thu\":\"0\",\"fri\":\"0\",\"sat\":\"0\",\"sun\":\"0\"}","created_on":"2022-10-26 03:16:01","updated_on":"2022-10-26 03:18:10","ordr":"0","featured":null,"brand":null,"product":null,"pending":null,"slug":"daltile-mesquite-mesquite","custom":null},
{"id":"174","title":"Daltile Carrollton","description":"","street":"1705 Wallace Drive, Suite 100","city":"Carrollton","state":"TX","postal_code":"75006","country":"223","lat":"32.9396291","lng":"-96.92679369999999","phone":"(972) 245-3185","fax":"","email":"","website":"","description_2":"","logo_id":"0","marker_id":"1","is_disabled":"0","open_hours":"{\"mon\":\"0\",\"tue\":\"0\",\"wed\":\"0\",\"thu\":\"0\",\"fri\":\"0\",\"sat\":\"0\",\"sun\":\"0\"}","created_on":"2022-10-26 03:18:44","updated_on":"2022-10-26 03:19:40","ordr":"0","featured":null,"brand":null,"product":null,"pending":null,"slug":"daltile-carrollton-carrollton","custom":null},
{"id":"175","title":"Daltile Fort Worth","description":"","street":"3328 Fossil Creek BLVD","city":"Fort Worth","state":"TX","postal_code":"76137","country":"223","lat":"32.8473792","lng":"-97.3115497","phone":"(972) 489-7073","fax":"","email":"","website":"","description_2":"","logo_id":"0","marker_id":"1","is_disabled":"0","open_hours":"{\"mon\":\"0\",\"tue\":\"0\",\"wed\":\"0\",\"thu\":\"0\",\"fri\":\"0\",\"sat\":\"0\",\"sun\":\"0\"}","created_on":"2022-10-26 03:19:48","updated_on":"2022-10-26 03:20:43","ordr":"0","featured":null,"brand":null,"product":null,"pending":null,"slug":"daltile-fort-worth-fort-worth","custom":null},
{"id":"176","title":"Daltile San Antonio","description":"","street":"1119 Arion Pkwy","city":"San Antonio","state":"TX","postal_code":"78216","country":"223","lat":"29.5494002","lng":"-98.4761011","phone":"(210) 403-0298","fax":"","email":"","website":"","description_2":"","logo_id":"0","marker_id":"1","is_disabled":"0","open_hours":"{\"mon\":\"0\",\"tue\":\"0\",\"wed\":\"0\",\"thu\":\"0\",\"fri\":\"0\",\"sat\":\"0\",\"sun\":\"0\"}","created_on":"2022-10-26 03:20:51","updated_on":"2022-10-26 03:21:54","ordr":"0","featured":null,"brand":null,"product":null,"pending":null,"slug":"daltile-san-antonio-san-antonio","custom":null},
{"id":"177","title":"Daltile Arlington","description":"","street":"2500 E Mayfield Rd ,Ste 300","city":"Arlington","state":"TX","postal_code":"76014","country":"223","lat":"32.6908361","lng":"-97.0652206","phone":"(817) 784-3853","fax":"","email":"","website":"","description_2":"","logo_id":"0","marker_id":"1","is_disabled":"0","open_hours":"{\"mon\":\"0\",\"tue\":\"0\",\"wed\":\"0\",\"thu\":\"0\",\"fri\":\"0\",\"sat\":\"0\",\"sun\":\"0\"}","created_on":"2022-10-27 14:22:56","updated_on":"2022-10-27 14:24:05","ordr":"0","featured":null,"brand":null,"product":null,"pending":null,"slug":"daltile-arlington-arlington","custom":null},
{"id":"178","title":"Daltile Plano","description":"","street":"1300 E Plano Pkwy A","city":"Plano","state":"TX","postal_code":"75074","country":"223","lat":"33.0063405","lng":"-96.6946404","phone":"(972) 578-1600","fax":"","email":"","website":"","description_2":"","logo_id":"0","marker_id":"1","is_disabled":"0","open_hours":"{\"mon\":\"0\",\"tue\":\"0\",\"wed\":\"0\",\"thu\":\"0\",\"fri\":\"0\",\"sat\":\"0\",\"sun\":\"0\"}","created_on":"2022-10-27 14:24:28","updated_on":"2022-10-27 14:25:28","ordr":"0","featured":null,"brand":null,"product":null,"pending":null,"slug":"daltile-plano-plano","custom":null},
{"id":"179","title":"Standard Paint and Flooring","description":"","street":"130 S 72nd Ave","city":"Yakima","state":"WA","postal_code":"98908","country":"223","lat":"46.5960976","lng":"-120.6063226","phone":"(509) 972-7620","fax":"","email":"","website":"https:\/\/www.hydroblok.com\/find-a-dealer\/standard-paint-and-flooring\/","description_2":"","logo_id":"0","marker_id":"1","is_disabled":"0","open_hours":"{\"mon\":\"0\",\"tue\":\"0\",\"wed\":\"0\",\"thu\":\"0\",\"fri\":\"0\",\"sat\":\"0\",\"sun\":\"0\"}","created_on":"2022-11-09 01:59:56","updated_on":"2023-07-14 05:50:02","ordr":"0","featured":null,"brand":null,"product":null,"pending":null,"slug":"standard-paint-and-flooring-yakima","custom":null},
{"id":"180","title":"Daltile Charleston","description":"","street":"2261 Technical Pkwy Ste B","city":"Charleston","state":"SC","postal_code":"29406","country":"223","lat":"32.910524","lng":"-80.032352","phone":"(509) 972-7620","fax":"","email":"","website":"https:\/\/www.hydroblok.com\/find-a-dealer\/daltile-charleston\/","description_2":"","logo_id":"0","marker_id":"1","is_disabled":"0","open_hours":"{\"mon\":\"0\",\"tue\":\"0\",\"wed\":\"0\",\"thu\":\"0\",\"fri\":\"0\",\"sat\":\"0\",\"sun\":\"0\"}","created_on":"2022-11-26 04:39:51","updated_on":"2023-07-14 05:39:45","ordr":"0","featured":null,"brand":null,"product":null,"pending":null,"slug":"daltile-charleston-charleston","custom":null},
{"id":"181","title":"SVC Interiors & Design Inc - Bellingham","description":"","street":"1701 Ellis St, STE 107","city":"Bellingham","state":"WA","postal_code":"98225","country":"223","lat":"48.7521332","lng":"-122.4723879","phone":"(360) 676-6036","fax":"","email":"","website":"https:\/\/www.hydroblok.com\/find-a-dealer\/svc-interiors-design-inc-bellingham\/","description_2":"","logo_id":"0","marker_id":"1","is_disabled":"0","open_hours":"{\"mon\":\"0\",\"tue\":\"0\",\"wed\":\"0\",\"thu\":\"0\",\"fri\":\"0\",\"sat\":\"0\",\"sun\":\"0\"}","created_on":"2022-11-29 23:21:30","updated_on":"2023-07-14 05:04:43","ordr":"0","featured":null,"brand":null,"product":null,"pending":null,"slug":"svc-interiors-design-inc-bellingham-bellingham","custom":null},
{"id":"182","title":"Custom Touch Interiors","description":"","street":"13029 NE 20th St","city":"Bellevue","state":"WA","postal_code":"98005","country":"223","lat":"47.6276913","lng":"-122.165924","phone":"(425) 883-0555","fax":"","email":"","website":"https:\/\/www.hydroblok.com\/find-a-dealer\/custom-touch-interiors\/","description_2":"","logo_id":"0","marker_id":"1","is_disabled":"0","open_hours":"{\"mon\":\"0\",\"tue\":\"0\",\"wed\":\"0\",\"thu\":\"0\",\"fri\":\"0\",\"sat\":\"0\",\"sun\":\"0\"}","created_on":"2022-11-29 23:24:00","updated_on":"2023-07-14 04:55:43","ordr":"0","featured":null,"brand":null,"product":null,"pending":null,"slug":"custom-touch-interiors-bellevue","custom":null},
{"id":"183","title":"Standard Paint & Flooring, L.L.C. - Yakima","description":"","street":"409 W Yakima Ave","city":"Yakima","state":"WA","postal_code":"98902","country":"223","lat":"46.6009925","lng":"-120.5152148","phone":"(509) 453-3171","fax":"","email":"","website":"https:\/\/www.hydroblok.com\/find-a-dealer\/standard-paint-flooring-l-l-c-yakima\/","description_2":"","logo_id":"0","marker_id":"1","is_disabled":"0","open_hours":"{\"mon\":\"0\",\"tue\":\"0\",\"wed\":\"0\",\"thu\":\"0\",\"fri\":\"0\",\"sat\":\"0\",\"sun\":\"0\"}","created_on":"2022-11-29 23:26:41","updated_on":"2023-07-14 04:45:24","ordr":"0","featured":null,"brand":null,"product":null,"pending":null,"slug":"standard-paint-flooring-l-l-c-yakima-yakima","custom":null},
{"id":"184","title":"Ceramic Tile Supply NW","description":"","street":"1620 W 7th Ave","city":"Eugene","state":"OR","postal_code":"97402","country":"223","lat":"44.0518463","lng":"-123.1173497","phone":"541-343-0449","fax":"","email":"","website":"http:\/\/ https:\/\/www.hydroblok.com\/find-a-dealer\/ceramic-tile-supply-nw\/","description_2":"","logo_id":"0","marker_id":"1","is_disabled":"0","open_hours":"{\"mon\":\"0\",\"tue\":\"0\",\"wed\":\"0\",\"thu\":\"0\",\"fri\":\"0\",\"sat\":\"0\",\"sun\":\"0\"}","created_on":"2022-11-29 23:30:08","updated_on":"2023-07-13 18:45:40","ordr":"0","featured":null,"brand":null,"product":null,"pending":null,"slug":"ceramic-tile-supply-nw-eugene","custom":null},
{"id":"185","title":"Color Tile of Medford","description":"","street":"3069 Crater Lake Ave","city":"Medford","state":" OR","postal_code":"97504","country":"223","lat":"42.3612462","lng":"-122.856127","phone":"(541) 776-3220","fax":"","email":"","website":"https:\/\/www.hydroblok.com\/find-a-dealer\/color-tile-of-medford\/","description_2":"","logo_id":"0","marker_id":"1","is_disabled":"0","open_hours":"{\"mon\":\"0\",\"tue\":\"0\",\"wed\":\"0\",\"thu\":\"0\",\"fri\":\"0\",\"sat\":\"0\",\"sun\":\"0\"}","created_on":"2022-11-29 23:33:30","updated_on":"2023-07-13 18:35:24","ordr":"0","featured":null,"brand":null,"product":null,"pending":null,"slug":"color-tile-of-medford-medford","custom":null},
{"id":"186","title":"Carpet One Floor & Home","description":"","street":"1606 N Portland St","city":"La Grande","state":" OR","postal_code":"97850","country":"223","lat":"45.32756750000001","lng":"-118.0790321","phone":"(541) 963-6033","fax":"","email":"","website":"https:\/\/www.hydroblok.com\/find-a-dealer\/carpet-one-floor-home\/","description_2":"","logo_id":"0","marker_id":"1","is_disabled":"0","open_hours":"{\"mon\":\"0\",\"tue\":\"0\",\"wed\":\"0\",\"thu\":\"0\",\"fri\":\"0\",\"sat\":\"0\",\"sun\":\"0\"}","created_on":"2022-11-29 23:35:44","updated_on":"2023-07-13 18:22:20","ordr":"0","featured":null,"brand":null,"product":null,"pending":null,"slug":"carpet-one-floor-home-la-grande","custom":null},
{"id":"187","title":"Southeastern Tile Connection Wilmington","description":"","street":"2101 Capital Drive","city":"Wilmington","state":"NC","postal_code":"28405","country":"223","lat":"34.2849463","lng":"-77.8742883","phone":"(910) 799-5565","fax":"","email":"info@setileconnection.com","website":"https:\/\/www.hydroblok.com\/find-a-dealer\/southeastern-tile-connection-wilmington\/","description_2":"","logo_id":"0","marker_id":"1","is_disabled":"0","open_hours":"{\"mon\":\"0\",\"tue\":\"0\",\"wed\":\"0\",\"thu\":\"0\",\"fri\":\"0\",\"sat\":\"0\",\"sun\":\"0\"}","created_on":"2022-12-13 14:17:03","updated_on":"2023-07-14 05:52:35","ordr":"0","featured":null,"brand":null,"product":null,"pending":null,"slug":"southeastern-tile-connection-wilmington-wilmington","custom":null},
{"id":"188","title":"Southeastern Tile Connection Durham","description":"","street":"3738 Durham-Chapel Hill Blvd,. Unit D","city":"Durham","state":"NC","postal_code":"27707","country":"223","lat":"35.9716673","lng":"-78.9533196","phone":"(919) 237-9845","fax":"","email":"info@setileconnection.com","website":"http:\/\/ https:\/\/www.hydroblok.com\/find-a-dealer\/southeastern-tile-connection-wilmington\/ ","description_2":"","logo_id":"0","marker_id":"1","is_disabled":"0","open_hours":"{\"mon\":\"0\",\"tue\":\"0\",\"wed\":\"0\",\"thu\":\"0\",\"fri\":\"0\",\"sat\":\"0\",\"sun\":\"0\"}","created_on":"2022-12-13 14:18:33","updated_on":"2023-07-13 18:17:28","ordr":"0","featured":null,"brand":null,"product":null,"pending":null,"slug":"southeastern-tile-connection-durham-durham","custom":null},
{"id":"189","title":"Sunsai Tile and Surfaces","description":"","street":"1510 Drew Rd #14,","city":"Mississauga","state":"ON","postal_code":"L5S 1W7","country":"38","lat":"43.6804685","lng":"-79.68067789999999","phone":"+1 647-407-1191","fax":"","email":"","website":"https:\/\/www.hydroblok.com\/find-a-dealer\/sunsai-tile-and-surfaces\/","description_2":"","logo_id":"0","marker_id":"1","is_disabled":"0","open_hours":"{\"mon\":\"0\",\"tue\":\"0\",\"wed\":\"0\",\"thu\":\"0\",\"fri\":\"0\",\"sat\":\"0\",\"sun\":\"0\"}","created_on":"2022-12-15 17:07:40","updated_on":"2023-07-13 17:51:23","ordr":"0","featured":null,"brand":null,"product":null,"pending":null,"slug":"sunsai-tile-and-surfaces-mississauga","custom":null},
{"id":"190","title":"ATS Supply Ltd.","description":"","street":"13451 Doole Road","city":"Ladysmith","state":"BC","postal_code":"V9G 1G6","country":"38","lat":"49.0433459","lng":"-123.7991889","phone":"250-661-6794","fax":"","email":"atssupplyltd@gmail.com","website":"https:\/\/atssupply.ca\/","description_2":"","logo_id":"0","marker_id":"1","is_disabled":"0","open_hours":"{\"mon\":\"0\",\"tue\":\"0\",\"wed\":\"0\",\"thu\":\"0\",\"fri\":\"0\",\"sat\":\"0\",\"sun\":\"0\"}","created_on":"2022-12-15 17:22:58","updated_on":"2023-12-05 21:26:51","ordr":"0","featured":null,"brand":null,"product":null,"pending":null,"slug":"ats-supply-ltd-ladysmith","custom":null},
{"id":"191","title":"Daltile Myrtle Beach","description":"","street":"1330 17th Ave S","city":"Myrtle Beach","state":"SC","postal_code":"29577","country":"223","lat":"33.692744","lng":"-78.9168779","phone":"(843) 839-0033","fax":"","email":"","website":"https:\/\/www.hydroblok.com\/find-a-dealer\/daltile-myrtle-beach\/","description_2":"","logo_id":"0","marker_id":"1","is_disabled":"0","open_hours":"{\"mon\":\"0\",\"tue\":\"0\",\"wed\":\"0\",\"thu\":\"0\",\"fri\":\"0\",\"sat\":\"0\",\"sun\":\"0\"}","created_on":"2022-12-22 05:12:03","updated_on":"2023-07-13 16:32:33","ordr":"0","featured":null,"brand":null,"product":null,"pending":null,"slug":"daltile-myrtle-beach-myrtle-beach","custom":null},
{"id":"193","title":"Daltile San Rafael","description":"","street":"25 Pelican Way","city":"San Rafael","state":"CA","postal_code":"94901","country":"223","lat":"37.9495207","lng":"-122.4933352","phone":"(415)454-8610","fax":"","email":"","website":"https:\/\/www.hydroblok.com\/find-a-dealer\/daltile-san-rafael\/","description_2":"","logo_id":"0","marker_id":"1","is_disabled":"0","open_hours":"{\"mon\":\"0\",\"tue\":\"0\",\"wed\":\"0\",\"thu\":\"0\",\"fri\":\"0\",\"sat\":\"0\",\"sun\":\"0\"}","created_on":"2023-02-03 13:53:22","updated_on":"2023-07-13 13:01:54","ordr":"0","featured":null,"brand":null,"product":null,"pending":null,"slug":"daltile-san-rafael-san-rafael","custom":null},
{"id":"195","title":"EMCO Guelph","description":"","street":"65 Dawson Rd #1","city":"Guelph","state":"ON","postal_code":"N1H 1B1","country":"38","lat":"43.547801","lng":"-80.2763825","phone":"(519)822-9160","fax":"","email":"","website":"https:\/\/www.hydroblok.com\/find-a-dealer\/emco-guelph\/","description_2":"","logo_id":"0","marker_id":"1","is_disabled":"0","open_hours":"{\"mon\":\"0\",\"tue\":\"0\",\"wed\":\"0\",\"thu\":\"0\",\"fri\":\"0\",\"sat\":\"0\",\"sun\":\"0\"}","created_on":"2023-02-27 18:46:49","updated_on":"2023-07-13 12:46:12","ordr":"0","featured":null,"brand":null,"product":null,"pending":null,"slug":"emco-guelph-guelph","custom":null},
{"id":"197","title":" Premier Surface & Supply LLC","description":"","street":"12971 Eaton St","city":"Detroit","state":"MI","postal_code":"48227","country":"223","lat":"42.3969814","lng":"-83.1738388","phone":"(313) 659-6115","fax":"","email":"","website":"https:\/\/www.hydroblok.com\/find-a-dealer\/premier-surface-supply-llc\/","description_2":"","logo_id":"0","marker_id":"1","is_disabled":"0","open_hours":"{\"mon\":\"0\",\"tue\":\"0\",\"wed\":\"0\",\"thu\":\"0\",\"fri\":\"0\",\"sat\":\"0\",\"sun\":\"0\"}","created_on":"2023-02-27 19:13:30","updated_on":"2023-07-12 12:05:34","ordr":"0","featured":null,"brand":null,"product":null,"pending":null,"slug":"premier-surface-supply-llc-detroit","custom":null},
{"id":"198","title":"ProSource of Seattle","description":"","street":"21312 30th Dr SE Suite B-107","city":"Bothell","state":"WA","postal_code":"98021","country":"223","lat":"47.804429","lng":"-122.1961172","phone":"425-487-4343 ext. 100","fax":"","email":"","website":"https:\/\/www.hydroblok.com\/find-a-dealer\/prosource-of-seattle\/","description_2":"","logo_id":"0","marker_id":"1","is_disabled":"0","open_hours":"{\"mon\":\"0\",\"tue\":\"0\",\"wed\":\"0\",\"thu\":\"0\",\"fri\":\"0\",\"sat\":\"0\",\"sun\":\"0\"}","created_on":"2023-03-18 21:32:54","updated_on":"2023-07-12 11:56:07","ordr":"0","featured":null,"brand":null,"product":null,"pending":null,"slug":"prosource-of-seattle-bothell","custom":null},
{"id":"199","title":"East Coast Granite & Tile","description":"","street":"3042 E Chestnut Expy,","city":"Springfield","state":"MO","postal_code":"65802","country":"223","lat":"37.20941200000001","lng":"-93.2324783","phone":"417-423-7722","fax":"","email":"","website":"https:\/\/www.hydroblok.com\/find-a-dealer\/east-coast-granite-tile\/","description_2":"","logo_id":"0","marker_id":"1","is_disabled":"0","open_hours":"{\"mon\":\"0\",\"tue\":\"0\",\"wed\":\"0\",\"thu\":\"0\",\"fri\":\"0\",\"sat\":\"0\",\"sun\":\"0\"}","created_on":"2023-03-18 21:35:13","updated_on":"2023-07-12 11:37:54","ordr":"0","featured":null,"brand":null,"product":null,"pending":null,"slug":"east-coast-granite-tile-springfield","custom":null},
{"id":"201","title":" Curran Design Center","description":"","street":"1609 N State Highway CC","city":"Nixa","state":"MO","postal_code":"65714","country":"223","lat":"37.0734265","lng":"-93.2942168","phone":"417-724-1018","fax":"","email":"","website":"","description_2":"","logo_id":"0","marker_id":"1","is_disabled":"0","open_hours":"{\"mon\":\"0\",\"tue\":\"0\",\"wed\":\"0\",\"thu\":\"0\",\"fri\":\"0\",\"sat\":\"0\",\"sun\":\"0\"}","created_on":"2023-03-18 21:40:12","updated_on":"2023-03-18 21:42:49","ordr":"0","featured":null,"brand":null,"product":null,"pending":null,"slug":"curran-design-center-nixa","custom":null},
{"id":"203","title":"Lakeside Renovations & Design","description":"","street":"139 Chesterfield Industrial Blvd","city":"Chesterfield","state":"MO","postal_code":"63005","country":"223","lat":"38.6654647","lng":"-90.62245209999999","phone":"636-978-5000","fax":"","email":"","website":"","description_2":"","logo_id":"0","marker_id":"1","is_disabled":"0","open_hours":"{\"mon\":\"0\",\"tue\":\"0\",\"wed\":\"0\",\"thu\":\"0\",\"fri\":\"0\",\"sat\":\"0\",\"sun\":\"0\"}","created_on":"2023-03-18 21:47:11","updated_on":"2023-03-18 21:49:32","ordr":"0","featured":null,"brand":null,"product":null,"pending":null,"slug":"lakeside-renovations-design-chesterfield","custom":null},
{"id":"204","title":"Carpet One Floor & Home","description":"","street":"105 Business Loop 70 E,","city":"Columbia","state":"MO","postal_code":"65203","country":"223","lat":"38.9651018","lng":"-92.3359739","phone":"(573) 303-5680","fax":"","email":"","website":"","description_2":"","logo_id":"0","marker_id":"1","is_disabled":"0","open_hours":"{\"mon\":\"0\",\"tue\":\"0\",\"wed\":\"0\",\"thu\":\"0\",\"fri\":\"0\",\"sat\":\"0\",\"sun\":\"0\"}","created_on":"2023-03-18 21:49:49","updated_on":"2023-03-18 21:50:33","ordr":"0","featured":null,"brand":null,"product":null,"pending":null,"slug":"carpet-one-floor-home-columbia","custom":null},
{"id":"205","title":"Homestar Design Remodel","description":"","street":"13014 Manchester Rd, Suite C","city":"Saint Louis","state":"MO","postal_code":"63131","country":"223","lat":"38.6021412","lng":"-90.459908","phone":"(314) 328-8200","fax":"","email":"","website":"https:\/\/www.hydroblok.com\/find-a-dealer\/homestar-design-remodel\/","description_2":"","logo_id":"0","marker_id":"1","is_disabled":"0","open_hours":"{\"mon\":\"0\",\"tue\":\"0\",\"wed\":\"0\",\"thu\":\"0\",\"fri\":\"0\",\"sat\":\"0\",\"sun\":\"0\"}","created_on":"2023-04-19 13:28:56","updated_on":"2023-07-12 11:23:01","ordr":"0","featured":null,"brand":null,"product":null,"pending":null,"slug":"homestar-design-remodel-saint-louis","custom":null},
{"id":"207","title":" The Tile House, Whitby, ON","description":"","street":"1400 Victoria Street East, Unit 3","city":"Whitby","state":"ON","postal_code":"L1N 0M2","country":"38","lat":"43.8666218","lng":"-78.91167380000002","phone":"(905) 668-2434","fax":"","email":"","website":"https:\/\/www.hydroblok.com\/find-a-dealer\/the-tile-house-whitby\/","description_2":"","logo_id":"0","marker_id":"1","is_disabled":"0","open_hours":"{\"mon\":\"0\",\"tue\":\"0\",\"wed\":\"0\",\"thu\":\"0\",\"fri\":\"0\",\"sat\":\"0\",\"sun\":\"0\"}","created_on":"2023-04-19 13:42:44","updated_on":"2023-04-19 13:49:25","ordr":"0","featured":null,"brand":null,"product":null,"pending":null,"slug":"the-tile-house-whitby-on-whitby","custom":null},
{"id":"208","title":"Mees Distributors, Inc.","description":"","street":"1541 West Fork Rd","city":"Cincinnati","state":"OH","postal_code":"45223","country":"223","lat":"39.1636128","lng":"-84.55356789999999","phone":"513-541-2311","fax":"","email":"jmassengale@meesdistributors.com","website":"https:\/\/www.hydroblok.com\/find-a-dealer\/mees-distributors-inc\/","description_2":"","logo_id":"0","marker_id":"1","is_disabled":"0","open_hours":"{\"mon\":\"0\",\"tue\":\"0\",\"wed\":\"0\",\"thu\":\"0\",\"fri\":\"0\",\"sat\":\"0\",\"sun\":\"0\"}","created_on":"2023-05-01 21:20:32","updated_on":"2023-05-02 18:42:54","ordr":"0","featured":null,"brand":null,"product":null,"pending":null,"slug":"mees-distributors-inc-cincinnati","custom":null},
{"id":"209","title":"Alpha Tile & Stone - Tampa","description":"","street":"2443 East Meadow BLVD","city":"Tampa","state":"FL","postal_code":"33619","country":"223","lat":"27.9643327","lng":"-82.3626759","phone":"813-620-9000","fax":"","email":"tony@alphatile.com","website":"https:\/\/www.hydroblok.com\/find-a-dealer\/alpha-tile-stone-tampa\/","description_2":"","logo_id":"0","marker_id":"1","is_disabled":"0","open_hours":"{\"mon\":\"0\",\"tue\":\"0\",\"wed\":\"0\",\"thu\":\"0\",\"fri\":\"0\",\"sat\":\"0\",\"sun\":\"0\"}","created_on":"2023-05-22 17:54:19","updated_on":"2023-07-12 11:00:42","ordr":"0","featured":null,"brand":null,"product":null,"pending":null,"slug":"alpha-tile-stone-tampa-tampa","custom":null},
{"id":"210","title":"Alpha Tile & Stone - Sarasota","description":"","street":"1808 Whitfield Avenue","city":"Sarasota","state":"FL","postal_code":"34243","country":"223","lat":"27.4177314","lng":"-82.5420022","phone":"941-727-7433","fax":"","email":"mikem@alphatile.com","website":"https:\/\/www.hydroblok.com\/find-a-dealer\/alpha-tile-stone-sarasota\/","description_2":"","logo_id":"0","marker_id":"1","is_disabled":"0","open_hours":"{\"mon\":\"0\",\"tue\":\"0\",\"wed\":\"0\",\"thu\":\"0\",\"fri\":\"0\",\"sat\":\"0\",\"sun\":\"0\"}","created_on":"2023-05-22 17:58:08","updated_on":"2023-07-12 10:37:31","ordr":"0","featured":null,"brand":null,"product":null,"pending":null,"slug":"alpha-tile-stone-sarasota-sarasota","custom":null},
{"id":"211","title":"Alpha Tile & Stone - Ft. Myers","description":"","street":"10898 Metro Pkwy, Suite A","city":"Ft. Myers","state":"FL","postal_code":"33966","country":"223","lat":"26.5836309","lng":"-81.8540255","phone":"239-275-8288","fax":"","email":"lynn@alphatile.com","website":"https:\/\/www.hydroblok.com\/find-a-dealer\/alpha-tile-stone-ft-myers\/","description_2":"","logo_id":"0","marker_id":"1","is_disabled":"0","open_hours":"{\"mon\":\"0\",\"tue\":\"0\",\"wed\":\"0\",\"thu\":\"0\",\"fri\":\"0\",\"sat\":\"0\",\"sun\":\"0\"}","created_on":"2023-05-22 17:59:38","updated_on":"2023-07-12 10:28:24","ordr":"0","featured":null,"brand":null,"product":null,"pending":null,"slug":"alpha-tile-stone-ft-myers-ft-myers","custom":null},
{"id":"212","title":"M2 Tile & Stone + Slabs","description":"","street":"26 Dufflaw Rd","city":"Toronto","state":"ON","postal_code":"M6A 2W1","country":"38","lat":"37.09024","lng":"-95.712891","phone":"416-850-1045","fax":"","email":"christine@m2tilestone.com","website":"https:\/\/m2tilestone.com\/","description_2":"","logo_id":"0","marker_id":"1","is_disabled":"1","open_hours":"{\"mon\":\"0\",\"tue\":\"0\",\"wed\":\"0\",\"thu\":\"0\",\"fri\":\"0\",\"sat\":\"0\",\"sun\":\"0\"}","created_on":"2023-05-26 18:37:07","updated_on":"2023-06-24 15:30:51","ordr":"0","featured":null,"brand":null,"product":null,"pending":null,"slug":"m2-tile-stone-slabs-toronto","custom":null},
{"id":"213","title":"Maris Home Improvements","description":"","street":"208 Chesterfield Industrial Blvd.","city":"Chesterfield","state":"MO","postal_code":"63005","country":"223","lat":"38.662838","lng":"-90.62111019999999","phone":"(636) 948-6004","fax":"","email":"","website":"https:\/\/www.hydroblok.com\/find-a-dealer\/maris-home-improvements\/","description_2":"","logo_id":"0","marker_id":"1","is_disabled":"0","open_hours":"{\"mon\":\"0\",\"tue\":\"0\",\"wed\":\"0\",\"thu\":\"0\",\"fri\":\"0\",\"sat\":\"0\",\"sun\":\"0\"}","created_on":"2023-06-12 01:09:52","updated_on":"2023-07-12 10:27:23","ordr":"0","featured":null,"brand":null,"product":null,"pending":null,"slug":"maris-home-improvements-chesterfield","custom":null},
{"id":"214","title":"Global Stone LLC ","description":"","street":"421 N Rawhide","city":"Olathe","state":"KS","postal_code":"66061","country":"223","lat":"38.8866119","lng":"-94.7914234","phone":"(913) 764-9400","fax":"","email":"","website":"","description_2":"","logo_id":"0","marker_id":"1","is_disabled":"0","open_hours":"{\"mon\":\"0\",\"tue\":\"0\",\"wed\":\"0\",\"thu\":\"0\",\"fri\":\"0\",\"sat\":\"0\",\"sun\":\"0\"}","created_on":"2023-06-15 21:11:33","updated_on":"2023-06-15 21:13:03","ordr":"0","featured":null,"brand":null,"product":null,"pending":null,"slug":"global-stone-llc-olathe","custom":null},
{"id":"215","title":"Global Stone LLC ","description":"","street":" 7613 NW. Prairie View Rd","city":"Kansas City","state":"MO","postal_code":"64151","country":"223","lat":"39.2331881","lng":"-94.6577253","phone":"(816)656-5111","fax":"","email":"","website":"","description_2":"","logo_id":"0","marker_id":"1","is_disabled":"0","open_hours":"{\"mon\":\"0\",\"tue\":\"0\",\"wed\":\"0\",\"thu\":\"0\",\"fri\":\"0\",\"sat\":\"0\",\"sun\":\"0\"}","created_on":"2023-06-15 21:13:14","updated_on":"2023-06-15 21:15:04","ordr":"0","featured":null,"brand":null,"product":null,"pending":null,"slug":"global-stone-llc-kansas-city","custom":null},
{"id":"216","title":"Millenium Slate LLC","description":"","street":"2027 County Rt 23","city":"Middle Granville","state":"NY","postal_code":"12849","country":"223","lat":"43.4332191","lng":"-73.2831515","phone":"855-677-6257","fax":"","email":"info@mslate.rocks","website":"https:\/\/www.hydroblok.com\/find-a-dealer\/millenium-slate-llc\/","description_2":"","logo_id":"0","marker_id":"1","is_disabled":"0","open_hours":"{\"mon\":\"0\",\"tue\":\"0\",\"wed\":\"0\",\"thu\":\"0\",\"fri\":\"0\",\"sat\":\"0\",\"sun\":\"0\"}","created_on":"2023-06-16 02:12:36","updated_on":"2023-07-12 07:07:34","ordr":"0","featured":null,"brand":null,"product":null,"pending":null,"slug":"millenium-slate-llc-middle-granville","custom":null},
{"id":"217","title":"Cabinet Design Studio","description":"","street":"146th & Industrial Road","city":"Omaha","state":"NE","postal_code":"68144","country":"223","lat":"41.2235466","lng":"-96.1370398","phone":"(531) 301-9550","fax":"","email":"info@cabinetsomaha.com","website":"https:\/\/www.hydroblok.com\/find-a-dealer\/cabinet-design-studio\/","description_2":"","logo_id":"0","marker_id":"1","is_disabled":"0","open_hours":"{\"mon\":\"0\",\"tue\":\"0\",\"wed\":\"0\",\"thu\":\"0\",\"fri\":\"0\",\"sat\":\"0\",\"sun\":\"0\"}","created_on":"2023-06-23 18:47:16","updated_on":"2023-07-12 06:50:02","ordr":"0","featured":null,"brand":null,"product":null,"pending":null,"slug":"cabinet-design-studio-omaha","custom":null},
{"id":"218","title":"M2 Tile & Stone + Slabs","description":"","street":"26 Dufflaw Rd","city":"Toronto","state":"ON","postal_code":"M6A 2W1","country":"38","lat":"43.7145966","lng":"-79.4624829","phone":"416-850-1045","fax":"","email":"info@m2tilestone.com","website":"https:\/\/www.hydroblok.com\/find-a-dealer\/m2tilestone-distribution\/","description_2":"","logo_id":"0","marker_id":"1","is_disabled":"0","open_hours":"{\"mon\":\"0\",\"tue\":\"0\",\"wed\":\"0\",\"thu\":\"0\",\"fri\":\"0\",\"sat\":\"0\",\"sun\":\"0\"}","created_on":"2023-06-24 15:31:08","updated_on":"2023-07-12 06:16:17","ordr":"0","featured":null,"brand":null,"product":null,"pending":null,"slug":"m2-tile-stone-slabs-toronto","custom":null},
{"id":"219","title":"Daltile Cranberry - Pittsburgh North","description":"Daltile Sales Service Center in Cranberry Township, PA is the best destination in the country for specialty tile, from one-of-a-kind mosaics, to wood-look and natural stone At a Daltile Sales Service Center, youll always find the best deal on tile along with the information you need to bring your clients dream to life.","street":"220 Executive Dr. Ste 100-200","city":"Cranberry Twp","state":"PA","postal_code":"16066","country":"223","lat":"40.68701799999999","lng":"-80.1083365","phone":"(724) 776-2311","fax":"","email":"mark.mckinnis@daltile.com","website":"https:\/\/locations.daltile.com\/pa\/cranberry-township\/284\/","description_2":"","logo_id":"0","marker_id":"1","is_disabled":"0","open_hours":"{\"mon\":\"0\",\"tue\":\"0\",\"wed\":\"0\",\"thu\":\"0\",\"fri\":\"0\",\"sat\":\"0\",\"sun\":\"0\"}","created_on":"2023-07-27 18:10:25","updated_on":"2023-07-27 18:13:20","ordr":"0","featured":null,"brand":null,"product":null,"pending":null,"slug":"daltile-cranberry-pittsburgh-north-cranberry-twp","custom":null},
{"id":"220","title":" BT Bath Inc.","description":"","street":"35 Gotha St","city":"Trenton","state":"Ontario","postal_code":"K8V 6C9","country":"38","lat":"44.1060036","lng":"-77.5868812","phone":"416-986-5051","fax":"","email":"","website":"https:\/\/btbath.ca","description_2":"","logo_id":"0","marker_id":"1","is_disabled":"0","open_hours":"{\"mon\":\"0\",\"tue\":\"0\",\"wed\":\"0\",\"thu\":\"0\",\"fri\":\"0\",\"sat\":\"0\",\"sun\":\"0\"}","created_on":"2023-10-05 20:10:34","updated_on":"2023-10-05 20:15:01","ordr":"0","featured":null,"brand":null,"product":null,"pending":null,"slug":"bt-bath-inc-trenton","custom":null},
{"id":"222","title":"Daltile New Orleans","description":"","street":"700 Elmwood pkwy. suite B","city":"New Orleans","state":"LA","postal_code":"70123","country":"223","lat":"34.2068182","lng":"-118.2000277","phone":"(504) 818-0118","fax":"","email":"","website":"https:\/\/locations.daltile.com\/la\/new-orleans\/110\/","description_2":"","logo_id":"0","marker_id":"1","is_disabled":"0","open_hours":"{\"mon\":\"0\",\"tue\":\"0\",\"wed\":\"0\",\"thu\":\"0\",\"fri\":\"0\",\"sat\":\"0\",\"sun\":\"0\"}","created_on":"2023-10-11 20:44:52","updated_on":"2023-10-11 20:47:00","ordr":"0","featured":null,"brand":null,"product":null,"pending":null,"slug":"daltile-new-orleans-new-orleans","custom":null},
{"id":"223","title":"Daltile New Orleans","description":"","street":"700 Elmwood pkwy. suite B","city":"New Orleans","state":"LA","postal_code":"70123","country":"223","lat":"34.2068182","lng":"-118.2000277","phone":"(504) 818-0118","fax":"","email":"","website":"https:\/\/locations.daltile.com\/la\/new-orleans\/110\/","description_2":"","logo_id":"0","marker_id":"1","is_disabled":"0","open_hours":"{\"mon\":\"0\",\"tue\":\"0\",\"wed\":\"0\",\"thu\":\"0\",\"fri\":\"0\",\"sat\":\"0\",\"sun\":\"0\"}","created_on":"2023-10-11 20:47:55","updated_on":null,"ordr":"0","featured":null,"brand":null,"product":null,"pending":null,"slug":"daltile-new-orleans-new-orleans","custom":null},
{"id":"224","title":"MB Services","description":"","street":"2101 Baldwin Ave Suite 1","city":"Crofton","state":"Maryland","postal_code":"21114","country":"223","lat":"38.9870852","lng":"-76.6935617","phone":"(443) 590-5048","fax":"","email":"","website":"http:\/\/www.mb-services.us","description_2":"","logo_id":"0","marker_id":"1","is_disabled":"0","open_hours":"{\"mon\":\"0\",\"tue\":\"0\",\"wed\":\"0\",\"thu\":\"0\",\"fri\":\"0\",\"sat\":\"0\",\"sun\":\"0\"}","created_on":"2023-10-17 12:51:12","updated_on":"2024-01-08 03:44:26","ordr":"0","featured":null,"brand":null,"product":null,"pending":null,"slug":"mb-services-crofton","custom":null},
{"id":"225","title":"Iron Mountain Stone & Tile","description":"","street":"","city":"Concord","state":"NC","postal_code":"28025","country":"223","lat":"35.4087517","lng":"-80.579511","phone":"980-253-3451 ","fax":"","email":"ironmountainstone@gmail.com","website":"https:\/\/www.ironmountainstone.com\/","description_2":"","logo_id":"0","marker_id":"1","is_disabled":"0","open_hours":"{\"mon\":\"0\",\"tue\":\"0\",\"wed\":\"0\",\"thu\":\"0\",\"fri\":\"0\",\"sat\":\"0\",\"sun\":\"0\"}","created_on":"2023-10-17 20:58:45","updated_on":"2023-10-17 21:06:22","ordr":"0","featured":null,"brand":null,"product":null,"pending":null,"slug":"iron-mountain-stone-tile-concord","custom":null},
{"id":"226","title":"ProSource Of Acadiana","description":"","street":"321 E. Verot School Road","city":"Lafayette","state":"LA","postal_code":"70508","country":"223","lat":"30.180169","lng":"-91.9987441","phone":"337-205-3606","fax":"","email":"","website":"https:\/\/www.prosourcewholesale.com\/showrooms\/la-prosource-of-acadiana","description_2":"","logo_id":"0","marker_id":"1","is_disabled":"0","open_hours":"{\"mon\":\"0\",\"tue\":\"0\",\"wed\":\"0\",\"thu\":\"0\",\"fri\":\"0\",\"sat\":\"0\",\"sun\":\"0\"}","created_on":"2023-10-19 20:11:11","updated_on":"2023-10-22 21:43:47","ordr":"0","featured":null,"brand":null,"product":null,"pending":null,"slug":"prosource-of-acadiana-lafayette","custom":null},
{"id":"227","title":"ProSource Of Mobile","description":"","street":"1558 West Interstate 65 Service Rd S","city":"Mobile","state":"AL","postal_code":"36693","country":"223","lat":"30.6573155","lng":"-88.1257069","phone":"(251) 202-3670","fax":"","email":"","website":"https:\/\/www.prosourcewholesale.com\/showrooms\/al-prosource-of-mobile","description_2":"","logo_id":"0","marker_id":"1","is_disabled":"0","open_hours":"{\"mon\":\"0\",\"tue\":\"0\",\"wed\":\"0\",\"thu\":\"0\",\"fri\":\"0\",\"sat\":\"0\",\"sun\":\"0\"}","created_on":"2023-10-22 21:40:08","updated_on":"2023-10-22 21:43:14","ordr":"0","featured":null,"brand":null,"product":null,"pending":null,"slug":"prosource-of-mobile-mobile","custom":null},
{"id":"228","title":"ProSource of Baton Rouge","description":"","street":"10848 Airline Hwy","city":"Baton Rouge","state":"LA","postal_code":"70809","country":"223","lat":"30.4058135","lng":"-91.0624318","phone":"(225) 230-4626","fax":"","email":"","website":"https:\/\/www.prosourcewholesale.com\/showrooms\/la-prosource-of-baton-rouge","description_2":"","logo_id":"0","marker_id":"1","is_disabled":"0","open_hours":"{\"mon\":\"0\",\"tue\":\"0\",\"wed\":\"0\",\"thu\":\"0\",\"fri\":\"0\",\"sat\":\"0\",\"sun\":\"0\"}","created_on":"2023-10-22 21:44:38","updated_on":"2023-10-22 21:46:27","ordr":"0","featured":null,"brand":null,"product":null,"pending":null,"slug":"prosource-of-baton-rouge-baton-rouge","custom":null},
{"id":"229","title":"ProSource of New Orleans","description":"","street":"1525 Edwards Ave","city":"Harahan","state":"LA","postal_code":"70123","country":"223","lat":"29.9633396","lng":"-90.1955309","phone":" (504) 291-3904","fax":"","email":"","website":"https:\/\/www.prosourcewholesale.com\/showrooms\/la-prosource-of-new-orleans","description_2":"","logo_id":"0","marker_id":"1","is_disabled":"0","open_hours":"{\"mon\":\"0\",\"tue\":\"0\",\"wed\":\"0\",\"thu\":\"0\",\"fri\":\"0\",\"sat\":\"0\",\"sun\":\"0\"}","created_on":"2023-10-22 21:46:58","updated_on":"2023-10-22 21:48:02","ordr":"0","featured":null,"brand":null,"product":null,"pending":null,"slug":"prosource-of-new-orleans-harahan","custom":null},
{"id":"230","title":"ProSource of Gonzales","description":"","street":"2325 S Commerce Ave","city":"Gonzales","state":"LA","postal_code":"70737","country":"223","lat":"30.2123013","lng":"-90.9409302","phone":"(225) 230-4625","fax":"","email":"","website":"https:\/\/www.prosourcewholesale.com\/showrooms\/la-prosource-of-gonzales","description_2":"","logo_id":"0","marker_id":"1","is_disabled":"0","open_hours":"{\"mon\":\"0\",\"tue\":\"0\",\"wed\":\"0\",\"thu\":\"0\",\"fri\":\"0\",\"sat\":\"0\",\"sun\":\"0\"}","created_on":"2023-10-22 21:48:42","updated_on":"2023-10-22 21:49:55","ordr":"0","featured":null,"brand":null,"product":null,"pending":null,"slug":"prosource-of-gonzales-gonzales","custom":null},
{"id":"231","title":"ProSource of Jackson","description":"","street":"6370 Cole Rd","city":"Ridgeland","state":"MS","postal_code":"39157","country":"223","lat":"32.4028023","lng":"-90.1754721","phone":"(601) 255-2877","fax":"","email":"","website":"https:\/\/www.prosourcewholesale.com\/showrooms\/ms-prosource-of-jackson","description_2":"","logo_id":"0","marker_id":"1","is_disabled":"0","open_hours":"{\"mon\":\"0\",\"tue\":\"0\",\"wed\":\"0\",\"thu\":\"0\",\"fri\":\"0\",\"sat\":\"0\",\"sun\":\"0\"}","created_on":"2023-10-22 21:51:05","updated_on":"2023-10-22 21:52:28","ordr":"0","featured":null,"brand":null,"product":null,"pending":null,"slug":"prosource-of-jackson-ridgeland","custom":null},
{"id":"232","title":"ProSource of Mandeville","description":"","street":"13464 Seymour Myers Dr.","city":"Covington","state":"LA","postal_code":"70433","country":"223","lat":"30.4529671","lng":"-90.17825909999999","phone":"(985) 206-8619","fax":"","email":"","website":"https:\/\/www.prosourcewholesale.com\/showrooms\/la-prosource-of-mandeville","description_2":"","logo_id":"0","marker_id":"1","is_disabled":"0","open_hours":"{\"mon\":\"0\",\"tue\":\"0\",\"wed\":\"0\",\"thu\":\"0\",\"fri\":\"0\",\"sat\":\"0\",\"sun\":\"0\"}","created_on":"2023-10-22 21:52:49","updated_on":"2023-10-22 21:54:28","ordr":"0","featured":null,"brand":null,"product":null,"pending":null,"slug":"prosource-of-mandeville-covington","custom":null},
{"id":"233","title":"Floor Surplus","description":"","street":"1683 O'Neal Ln","city":"Baton Rouge","state":"LA","postal_code":"70816","country":"223","lat":"30.4454136","lng":"-91.005515","phone":"(225) 372-3645","fax":"","email":"","website":"https:\/\/www.floorsurplus.net\/","description_2":"","logo_id":"0","marker_id":"1","is_disabled":"0","open_hours":"{\"mon\":\"0\",\"tue\":\"0\",\"wed\":\"0\",\"thu\":\"0\",\"fri\":\"0\",\"sat\":\"0\",\"sun\":\"0\"}","created_on":"2023-10-22 21:55:40","updated_on":"2023-10-22 21:56:48","ordr":"0","featured":null,"brand":null,"product":null,"pending":null,"slug":"floor-surplus-baton-rouge","custom":null},
{"id":"234","title":"Smith & Purvis Carpet One","description":"","street":"1905 N Morrison Blvd","city":"Hammond","state":"LA","postal_code":"70401","country":"223","lat":"30.5183647","lng":"-90.4833467","phone":"(985) 878-5085","fax":"","email":"","website":"https:\/\/www.smithandpurviscarpetonehammond.com\/","description_2":"","logo_id":"0","marker_id":"1","is_disabled":"0","open_hours":"{\"mon\":\"0\",\"tue\":\"0\",\"wed\":\"0\",\"thu\":\"0\",\"fri\":\"0\",\"sat\":\"0\",\"sun\":\"0\"}","created_on":"2023-10-22 22:05:27","updated_on":"2023-10-22 22:06:52","ordr":"0","featured":null,"brand":null,"product":null,"pending":null,"slug":"smith-purvis-carpet-one-hammond","custom":null},
{"id":"235","title":"Menzie Stone","description":"","street":"16575 Commercial Ave","city":"Baton Rouge","state":"LA","postal_code":"70816","country":"223","lat":"30.4452088","lng":"-91.00009089999999","phone":"(225) 275-7819","fax":"","email":"","website":"https:\/\/menziestone.com\/","description_2":"","logo_id":"0","marker_id":"1","is_disabled":"0","open_hours":"{\"mon\":\"0\",\"tue\":\"0\",\"wed\":\"0\",\"thu\":\"0\",\"fri\":\"0\",\"sat\":\"0\",\"sun\":\"0\"}","created_on":"2023-10-22 22:07:04","updated_on":"2023-10-22 22:08:17","ordr":"0","featured":null,"brand":null,"product":null,"pending":null,"slug":"menzie-stone-baton-rouge","custom":null},
{"id":"236","title":"Menzie Flooring & Stone Nola","description":"","street":"1525 Edwards Ave","city":"Harahan","state":"LA","postal_code":"70816","country":"223","lat":"29.9633396","lng":"-90.1955309","phone":"504-733-3070","fax":"","email":"","website":"","description_2":"","logo_id":"0","marker_id":"1","is_disabled":"0","open_hours":"{\"mon\":\"0\",\"tue\":\"0\",\"wed\":\"0\",\"thu\":\"0\",\"fri\":\"0\",\"sat\":\"0\",\"sun\":\"0\"}","created_on":"2023-10-22 22:09:32","updated_on":"2023-10-22 22:10:40","ordr":"0","featured":null,"brand":null,"product":null,"pending":null,"slug":"menzie-flooring-stone-nola-harahan","custom":null},
{"id":"237","title":"Menzie Production Builders ","description":"","street":"16575 Commercial Ave Bldg. 2 2nd Floor","city":"Baton Rouge","state":"LA","postal_code":"70816 ","country":"223","lat":"30.4549016","lng":"-91.1660626","phone":"225-275-7819","fax":"","email":"","website":"","description_2":"","logo_id":"0","marker_id":"1","is_disabled":"0","open_hours":"{\"mon\":\"0\",\"tue\":\"0\",\"wed\":\"0\",\"thu\":\"0\",\"fri\":\"0\",\"sat\":\"0\",\"sun\":\"0\"}","created_on":"2023-10-22 22:10:56","updated_on":"2023-10-22 22:13:30","ordr":"0","featured":null,"brand":null,"product":null,"pending":null,"slug":"menzie-production-builders-baton-rouge","custom":null},
{"id":"238","title":"PS Distribution","description":"","street":"16575 Commercial Ave Bldg. 3","city":"Baton Rouge","state":"LA","postal_code":"70816 ","country":"223","lat":"30.4549016","lng":"-91.1660626","phone":"225-774-8686","fax":"","email":"","website":"","description_2":"","logo_id":"0","marker_id":"1","is_disabled":"0","open_hours":"{\"mon\":\"0\",\"tue\":\"0\",\"wed\":\"0\",\"thu\":\"0\",\"fri\":\"0\",\"sat\":\"0\",\"sun\":\"0\"}","created_on":"2023-10-22 22:14:33","updated_on":"2023-10-22 22:15:09","ordr":"0","featured":null,"brand":null,"product":null,"pending":null,"slug":"ps-distribution-baton-rouge","custom":null},
{"id":"239","title":"Tile For Less - Federal Way ","description":"","street":"1610 S 344th ST ","city":"Federal Way ","state":"WA","postal_code":"98003","country":"223","lat":"47.2938237","lng":"-122.3129578","phone":"(253) 878-5224","fax":"","email":"federalway@tileforlessnw.com","website":"https:\/\/tileforlessnw.com\/federal-way\/","description_2":"","logo_id":"0","marker_id":"1","is_disabled":"0","open_hours":"{\"mon\":\"0\",\"tue\":\"0\",\"wed\":\"0\",\"thu\":\"0\",\"fri\":\"0\",\"sat\":\"0\",\"sun\":\"0\"}","created_on":"2023-11-17 16:02:26","updated_on":"2023-11-17 16:04:04","ordr":"0","featured":null,"brand":null,"product":null,"pending":null,"slug":"tile-for-less-federal-way-federal-way","custom":null},
{"id":"240","title":"Contract Furnishings Mart - North Seattle","description":"","street":"953 N 128th ST","city":"Seattle","state":"WA","postal_code":"98133","country":"223","lat":"47.7220235","lng":"-122.3457891","phone":"(206) 805-2709","fax":"","email":"dom.berryhill@cfmfloors.com","website":"https:\/\/cfmfloors.com\/north-seattle-wa\/","description_2":"","logo_id":"0","marker_id":"1","is_disabled":"0","open_hours":"{\"mon\":\"0\",\"tue\":\"0\",\"wed\":\"0\",\"thu\":\"0\",\"fri\":\"0\",\"sat\":\"0\",\"sun\":\"0\"}","created_on":"2023-11-17 16:04:54","updated_on":"2023-11-17 16:06:30","ordr":"0","featured":null,"brand":null,"product":null,"pending":null,"slug":"contract-furnishings-mart-north-seattle-seattle","custom":null},
{"id":"241","title":"Contract Furnishings Mart - Everett","description":"","street":"802 134th St SW #160","city":"Everett ","state":"WA","postal_code":"98204","country":"223","lat":"47.8746684","lng":"-122.2444849","phone":"(425) 329-1330","fax":"","email":"ashley.whitworth@cfmfloors.com","website":"https:\/\/cfmfloors.com\/everett-wa\/","description_2":"","logo_id":"0","marker_id":"1","is_disabled":"0","open_hours":"{\"mon\":\"0\",\"tue\":\"0\",\"wed\":\"0\",\"thu\":\"0\",\"fri\":\"0\",\"sat\":\"0\",\"sun\":\"0\"}","created_on":"2023-11-17 16:06:48","updated_on":"2023-11-17 16:08:04","ordr":"0","featured":null,"brand":null,"product":null,"pending":null,"slug":"contract-furnishings-mart-everett-everett","custom":null},
{"id":"242","title":"Contract Furnishings Mart - Fife","description":"","street":"3600 Industry Dr E ","city":"Fife","state":"WA","postal_code":"98424","country":"223","lat":"47.2371949","lng":"-122.3790488","phone":"(253) 922-4648","fax":"","email":"sam.gallagher@cfmfloors.com","website":"https:\/\/cfmfloors.com\/fife-wa\/","description_2":"","logo_id":"0","marker_id":"1","is_disabled":"0","open_hours":"{\"mon\":\"0\",\"tue\":\"0\",\"wed\":\"0\",\"thu\":\"0\",\"fri\":\"0\",\"sat\":\"0\",\"sun\":\"0\"}","created_on":"2023-11-17 16:08:34","updated_on":"2023-11-17 16:10:11","ordr":"0","featured":null,"brand":null,"product":null,"pending":null,"slug":"contract-furnishings-mart-fife-fife","custom":null},
{"id":"243","title":"Contract Furnishings Mart - Kent","description":"","street":"22230 84th Ave S","city":"Kent","state":"WA","postal_code":"98032","country":"223","lat":"47.4019896","lng":"-122.2274345","phone":"(253) 234-2040","fax":"","email":"david.halingstad@cfmfloors.com","website":"https:\/\/cfmfloors.com\/kent-wa\/","description_2":"","logo_id":"0","marker_id":"1","is_disabled":"0","open_hours":"{\"mon\":\"0\",\"tue\":\"0\",\"wed\":\"0\",\"thu\":\"0\",\"fri\":\"0\",\"sat\":\"0\",\"sun\":\"0\"}","created_on":"2023-11-17 16:10:24","updated_on":"2023-11-17 16:11:26","ordr":"0","featured":null,"brand":null,"product":null,"pending":null,"slug":"contract-furnishings-mart-kent-kent","custom":null},
{"id":"244","title":"Contract Furnishings Mart - Lacey","description":"","street":"8719 Commerce Pl Dr NE ","city":"Lacey","state":"WA","postal_code":"98516","country":"223","lat":"47.0698643","lng":"-122.755813","phone":"(206) 480-0950","fax":"","email":"michelle.baduria@cfmfloors.com","website":"https:\/\/cfmfloors.com\/lacey-wa\/","description_2":"","logo_id":"0","marker_id":"1","is_disabled":"0","open_hours":"{\"mon\":\"0\",\"tue\":\"0\",\"wed\":\"0\",\"thu\":\"0\",\"fri\":\"0\",\"sat\":\"0\",\"sun\":\"0\"}","created_on":"2023-11-17 16:11:40","updated_on":"2023-11-17 16:12:36","ordr":"0","featured":null,"brand":null,"product":null,"pending":null,"slug":"contract-furnishings-mart-lacey-lacey","custom":null},
{"id":"245","title":"Contract Furnishings Mart - Redmond","description":"","street":"14920 NE 95th ST Suite A","city":"Redmond","state":"WA","postal_code":"98052","country":"223","lat":"47.6876306","lng":"-122.1413643","phone":"(425) 861-7589","fax":"","email":"jeri.martin@cfmfloors.com","website":"https:\/\/cfmfloors.com\/redmond-wa\/","description_2":"","logo_id":"0","marker_id":"1","is_disabled":"0","open_hours":"{\"mon\":\"0\",\"tue\":\"0\",\"wed\":\"0\",\"thu\":\"0\",\"fri\":\"0\",\"sat\":\"0\",\"sun\":\"0\"}","created_on":"2023-11-17 16:12:58","updated_on":"2023-11-17 16:13:53","ordr":"0","featured":null,"brand":null,"product":null,"pending":null,"slug":"contract-furnishings-mart-redmond-redmond","custom":null},
{"id":"246","title":"Contract Furnishings Mart - Seattle","description":"","street":"500 S Brandon ST","city":"Seattle ","state":"WA","postal_code":"98108","country":"223","lat":"47.5544249","lng":"-122.3280481","phone":"(206) 763-4500","fax":"","email":"jed.kittell@cfmfloors.com","website":"https:\/\/cfmfloors.com\/seattle-wa\/","description_2":"","logo_id":"0","marker_id":"1","is_disabled":"0","open_hours":"{\"mon\":\"0\",\"tue\":\"0\",\"wed\":\"0\",\"thu\":\"0\",\"fri\":\"0\",\"sat\":\"0\",\"sun\":\"0\"}","created_on":"2023-11-17 16:14:03","updated_on":"2023-11-17 16:15:07","ordr":"0","featured":null,"brand":null,"product":null,"pending":null,"slug":"contract-furnishings-mart-seattle-seattle","custom":null},
{"id":"247","title":"Contract Furnishings Mart - Tacoma","description":"","street":"6305 6th Ave ","city":"Tacoma","state":"WA","postal_code":"98406","country":"223","lat":"47.2573696","lng":"-122.5212989","phone":"(253) 284-0020","fax":"","email":"tom.quinlan@cfmfloors.com","website":"https:\/\/cfmfloors.com\/tacoma-wa\/","description_2":"","logo_id":"0","marker_id":"1","is_disabled":"0","open_hours":"{\"mon\":\"0\",\"tue\":\"0\",\"wed\":\"0\",\"thu\":\"0\",\"fri\":\"0\",\"sat\":\"0\",\"sun\":\"0\"}","created_on":"2023-11-17 16:15:51","updated_on":"2023-11-17 16:16:51","ordr":"0","featured":null,"brand":null,"product":null,"pending":null,"slug":"contract-furnishings-mart-tacoma-tacoma","custom":null},
{"id":"248","title":"Mat Valley Tile & Stone (Anchorage)","description":"","street":"661 E 48th Ave","city":"Anchorage","state":"AK","postal_code":"99503","country":"223","lat":"61.17751570000001","lng":"-149.8715782","phone":"(907) 644-8453","fax":"","email":"sales@matvalleytile.com","website":"https:\/\/www.matvalleytile.com\/","description_2":"","logo_id":"0","marker_id":"1","is_disabled":"0","open_hours":"{\"mon\":\"0\",\"tue\":\"0\",\"wed\":\"0\",\"thu\":\"0\",\"fri\":\"0\",\"sat\":\"0\",\"sun\":\"0\"}","created_on":"2023-11-17 16:17:30","updated_on":"2023-11-17 16:18:44","ordr":"0","featured":null,"brand":null,"product":null,"pending":null,"slug":"mat-valley-tile-stone-anchorage-anchorage","custom":null},
{"id":"249","title":"Mat Valley Tile & Stone (Wasilla)","description":"","street":"3770 E Steven Dr","city":"Wasilla","state":"AK","postal_code":"99654","country":"223","lat":"61.58395900000001","lng":"-149.354752","phone":"(907) 357-8484","fax":"","email":"sales@matvalleytile.com","website":"https:\/\/www.matvalleytile.com\/","description_2":"","logo_id":"0","marker_id":"1","is_disabled":"0","open_hours":"{\"mon\":\"0\",\"tue\":\"0\",\"wed\":\"0\",\"thu\":\"0\",\"fri\":\"0\",\"sat\":\"0\",\"sun\":\"0\"}","created_on":"2023-11-17 16:18:56","updated_on":"2023-11-17 16:20:04","ordr":"0","featured":null,"brand":null,"product":null,"pending":null,"slug":"mat-valley-tile-stone-wasilla-wasilla","custom":null},
{"id":"250","title":"Contemporary Bathrooms","description":"","street":"1235 40 Ave NE","city":"Calgary","state":"AB","postal_code":"T2E 6M9","country":"38","lat":"51.0882705","lng":"-114.0328456","phone":"(403) 291-2200","fax":"","email":"info@contemporarybath.ca","website":"","description_2":"","logo_id":"0","marker_id":"1","is_disabled":"0","open_hours":"{\"mon\":\"0\",\"tue\":\"0\",\"wed\":\"0\",\"thu\":\"0\",\"fri\":\"0\",\"sat\":\"0\",\"sun\":\"0\"}","created_on":"2023-11-27 19:11:17","updated_on":"2023-12-05 21:34:40","ordr":"0","featured":null,"brand":null,"product":null,"pending":null,"slug":"contemporary-bathrooms-calgary","custom":null},
{"id":"251","title":"Home Hardware Penticton","description":"","street":"150 Fairview Place","city":"Penticton","state":"British Columbia","postal_code":"V2A 6A5","country":"38","lat":"49.4805889","lng":"-119.5966661","phone":"(250) 493-1233","fax":"","email":"customerservice@pentictonhhbc.com","website":"https:\/\/pentictonhhbc.com\/","description_2":"","logo_id":"0","marker_id":"1","is_disabled":"0","open_hours":"{\"mon\":\"0\",\"tue\":\"0\",\"wed\":\"0\",\"thu\":\"0\",\"fri\":\"0\",\"sat\":\"0\",\"sun\":\"0\"}","created_on":"2023-12-05 21:29:26","updated_on":"2023-12-05 21:30:56","ordr":"0","featured":null,"brand":null,"product":null,"pending":null,"slug":"home-hardware-penticton-penticton","custom":null},
{"id":"252","title":"Golden Valley Tile and Stone","description":"","street":"202 NE 1P Road","city":"Clinton","state":"MO","postal_code":"64735","country":"223","lat":"38.3686324","lng":"-93.7782689","phone":"660.351.6230","fax":"","email":"","website":"","description_2":"","logo_id":"0","marker_id":"1","is_disabled":"0","open_hours":"{\"mon\":\"0\",\"tue\":\"0\",\"wed\":\"0\",\"thu\":\"0\",\"fri\":\"0\",\"sat\":\"0\",\"sun\":\"0\"}","created_on":"2023-12-12 19:54:30","updated_on":"2023-12-12 19:56:12","ordr":"0","featured":null,"brand":null,"product":null,"pending":null,"slug":"golden-valley-tile-and-stone-clinton","custom":null},
{"id":"253","title":"Metex Supply Co, Regina","description":"Metex hand-picks every product we sell, focussing on providing a high standard of quality and longevity, at a competitive cost. ","street":"Unit 12  309 Adolph Drive","city":"Regina","state":"SK","postal_code":"S4N5S5","country":"38","lat":"50.46878719999999","lng":"-104.5771278","phone":"(306) 530-8012","fax":"","email":"metexregina@gmail.com","website":"https:\/\/metexsupply.com\/","description_2":"","logo_id":"0","marker_id":"1","is_disabled":"0","open_hours":"{\"mon\":[\"08:00 AM - 05:00 PM\"],\"tue\":[\"08:00 AM - 05:00 PM\"],\"wed\":[\"08:00 AM - 05:00 PM\"],\"thu\":[\"08:00 AM - 05:00 PM\"],\"fri\":[\"08:00 AM - 05:00 PM\"],\"sat\":\"0\",\"sun\":\"0\"}","created_on":"2023-12-22 02:31:06","updated_on":"2023-12-22 02:35:35","ordr":"0","featured":null,"brand":null,"product":null,"pending":null,"slug":"metex-supply-co-regina-regina","custom":null},
{"id":"254","title":"EMCO Corporation","description":"Metex hand-picks every product we sell, focussing on providing a high standard of quality and longevity, at a competitive cost. ","street":"1000 Last Mile Drive, Unit 1","city":"Ottawa","state":"ON","postal_code":"K1G 6Y1","country":"38","lat":"45.3818489","lng":"-75.5886797","phone":"613-824-6091","fax":"","email":"afortin@emcoltd.com","website":"https:\/\/emco.ca\/stores\/emco-ottawa\/","description_2":"","logo_id":"0","marker_id":"1","is_disabled":"0","open_hours":"{\"mon\":\"0\",\"tue\":\"0\",\"wed\":\"0\",\"thu\":\"0\",\"fri\":\"0\",\"sat\":\"0\",\"sun\":\"0\"}","created_on":"2024-01-17 15:50:26","updated_on":"2024-01-17 15:53:42","ordr":"0","featured":null,"brand":null,"product":null,"pending":null,"slug":"emco-corporation-ottawa","custom":null},
{"id":"256","title":"Standard Paint and Flooring","description":"At Standard Paint & Flooring, we pride ourselves on quality products and service our customers can count on. Along with our original brand of customer-pleasing Benjamin Moore paint, we have more products in-store than most people imagine. We carry a large selection of flooring, including carpet, tile, stone, luxury vinyl, and hardwood, window treatments, and several lines of cabinetry in our newly-designed showrooms. Our paint and stain library is extensive, and we will gladly color match to you","street":"610 S Main Street","city":"Ellensburg","state":"WA","postal_code":"98926","country":"223","lat":"46.986329","lng":"-120.547708","phone":"(509) 962-2551","fax":"","email":"j.jenkins@standardpaintandflooring.com","website":"https:\/\/www.standardpaintandflooring.com\/","description_2":"","logo_id":"0","marker_id":"1","is_disabled":"0","open_hours":"{\"mon\":\"0\",\"tue\":\"0\",\"wed\":\"0\",\"thu\":\"0\",\"fri\":\"0\",\"sat\":\"0\",\"sun\":\"0\"}","created_on":"2024-02-02 19:17:59","updated_on":"2024-02-02 19:20:15","ordr":"0","featured":null,"brand":null,"product":null,"pending":null,"slug":"standard-paint-and-flooring-ellensburg","custom":null},
{"id":"258","title":"Ziggys Home Improvement (Spokane)","description":"","street":"620 E Holland Ave","city":"Spokane","state":"WA","postal_code":"99218","country":"223","lat":"47.7429181","lng":"-117.3992009","phone":"(509) 467-4958","fax":"","email":"","website":"https:\/\/ziggys.com\/","description_2":"","logo_id":"0","marker_id":"1","is_disabled":"0","open_hours":"{\"mon\":\"0\",\"tue\":\"0\",\"wed\":\"0\",\"thu\":\"0\",\"fri\":\"0\",\"sat\":\"0\",\"sun\":\"0\"}","created_on":"2024-02-02 19:25:54","updated_on":"2024-02-02 19:27:42","ordr":"0","featured":null,"brand":null,"product":null,"pending":null,"slug":"ziggy-s-home-improvement-spokane-spokane","custom":null},
{"id":"259","title":"Ziggys Home Improvement (Lewiston)","description":"","street":"1109 Warner Ave","city":"Lewiston","state":"ID","postal_code":"83501","country":"223","lat":"46.3849181","lng":"-116.9736402","phone":"(208) 743-6900","fax":"","email":"","website":"https:\/\/ziggys.com\/","description_2":"","logo_id":"0","marker_id":"1","is_disabled":"0","open_hours":"{\"mon\":\"0\",\"tue\":\"0\",\"wed\":\"0\",\"thu\":\"0\",\"fri\":\"0\",\"sat\":\"0\",\"sun\":\"0\"}","created_on":"2024-02-02 19:29:09","updated_on":"2024-02-02 19:30:23","ordr":"0","featured":null,"brand":null,"product":null,"pending":null,"slug":"ziggy-s-home-improvement-lewiston-lewiston","custom":null},
{"id":"260","title":"Ziggys Home Improvement (Post Falls)","description":"","street":"2121 N Highway 41","city":"Post Falls","state":"ID","postal_code":"83854","country":"223","lat":"47.7281397","lng":"-116.8976719","phone":"(208) 777-1955","fax":"","email":"","website":"https:\/\/ziggys.com\/","description_2":"","logo_id":"0","marker_id":"1","is_disabled":"0","open_hours":"{\"mon\":\"0\",\"tue\":\"0\",\"wed\":\"0\",\"thu\":\"0\",\"fri\":\"0\",\"sat\":\"0\",\"sun\":\"0\"}","created_on":"2024-02-02 19:30:37","updated_on":"2024-02-02 19:31:34","ordr":"0","featured":null,"brand":null,"product":null,"pending":null,"slug":"ziggy-s-home-improvement-post-falls-post-falls","custom":null},
{"id":"262","title":"Housing Interiors of Mid Missouri llc","description":"","street":" 5307 E St Charles Rd","city":"Columbia","state":"OH","postal_code":"65201","country":"223","lat":"40.4172871","lng":"-82.90712300000001","phone":"(573) 474-9695","fax":"","email":"HOUSINGINTERIORSLLC@GMAIL.COM","website":"https:\/\/www.housinginteriorsllc.com\/","description_2":"","logo_id":"0","marker_id":"1","is_disabled":"0","open_hours":"{\"mon\":\"0\",\"tue\":\"0\",\"wed\":\"0\",\"thu\":\"0\",\"fri\":\"0\",\"sat\":\"0\",\"sun\":\"0\"}","created_on":"2024-02-07 21:43:28","updated_on":"2024-02-07 21:45:13","ordr":"0","featured":null,"brand":null,"product":null,"pending":null,"slug":"housing-interiors-of-mid-missouri-llc-columbia","custom":null},
{"id":"263","title":"McLean Floorcoverings","description":"","street":"4391 W. US Highway 421","city":"Wilkesboro","state":"NC","postal_code":"28697","country":"223","lat":"36.149169","lng":"-81.2401375","phone":"(336) 568-0804","fax":"","email":"","website":"https:\/\/www.mcleanfloors.com\/","description_2":"","logo_id":"0","marker_id":"1","is_disabled":"0","open_hours":"{\"mon\":\"0\",\"tue\":\"0\",\"wed\":\"0\",\"thu\":\"0\",\"fri\":\"0\",\"sat\":\"0\",\"sun\":\"0\"}","created_on":"2024-02-07 21:45:24","updated_on":"2024-02-15 18:18:09","ordr":"0","featured":null,"brand":null,"product":null,"pending":null,"slug":"mclean-floorcoverings-wilkesboro","custom":null},
{"id":"264","title":"Accent Floor Coverings","description":"","street":"4614 N HWY 763","city":"Columbia","state":"OH","postal_code":"65202","country":"223","lat":"40.4172871","lng":"-82.90712300000001","phone":"(573) 874-2832","fax":"","email":"","website":"https:\/\/accentfc.com\/","description_2":"","logo_id":"0","marker_id":"1","is_disabled":"0","open_hours":"{\"mon\":\"0\",\"tue\":\"0\",\"wed\":\"0\",\"thu\":\"0\",\"fri\":\"0\",\"sat\":\"0\",\"sun\":\"0\"}","created_on":"2024-02-07 21:47:33","updated_on":"2024-02-07 21:50:31","ordr":"0","featured":null,"brand":null,"product":null,"pending":null,"slug":"accent-floor-coverings-columbia","custom":null},
{"id":"265","title":"Daltile Lenexa","description":"","street":"15380 W. 101st Terrace","city":"Lenexa","state":"KS","postal_code":"66219","country":"223","lat":"38.946888","lng":"-94.7641652","phone":"913-599-2987","fax":"","email":"KansasCity.SSC106@Daltile.com","website":"https:\/\/locations.daltile.com\/ks\/lenexa\/106\/","description_2":"","logo_id":"0","marker_id":"1","is_disabled":"0","open_hours":"{\"mon\":\"0\",\"tue\":\"0\",\"wed\":\"0\",\"thu\":\"0\",\"fri\":\"0\",\"sat\":\"0\",\"sun\":\"0\"}","created_on":"2024-02-27 14:35:12","updated_on":"2024-02-27 14:38:17","ordr":"0","featured":null,"brand":null,"product":null,"pending":null,"slug":"daltile-lenexa-lenexa","custom":null},
{"id":"266","title":"Tile This","description":"","street":"1436 Cliff Road E","city":"Burnsville","state":"MN","postal_code":"55337","country":"223","lat":"44.7907219","lng":"-93.2550847","phone":"(952) 882-0436 ","fax":"","email":"Sales@TileThis.com","website":"https:\/\/tilethis.com\/","description_2":"","logo_id":"0","marker_id":"1","is_disabled":"0","open_hours":"{\"mon\":\"0\",\"tue\":\"0\",\"wed\":\"0\",\"thu\":\"0\",\"fri\":\"0\",\"sat\":\"0\",\"sun\":\"0\"}","created_on":"2024-03-06 13:44:45","updated_on":"2024-03-06 13:46:08","ordr":"0","featured":null,"brand":null,"product":null,"pending":null,"slug":"tile-this-burnsville","custom":null},
{"id":"267","title":"Paul Davis of Polk County","description":"","street":"3306 Waterfield Rd","city":"Lakeland","state":"FL","postal_code":"33803","country":"223","lat":"28.0037127","lng":"-81.8968033","phone":"+1 863-644-7373","fax":"","email":"","website":"https:\/\/polk-county.pauldavis.com\/","description_2":"","logo_id":"0","marker_id":"1","is_disabled":"0","open_hours":"{\"mon\":\"0\",\"tue\":\"0\",\"wed\":\"0\",\"thu\":\"0\",\"fri\":\"0\",\"sat\":\"0\",\"sun\":\"0\"}","created_on":"2024-03-08 06:27:07","updated_on":"2024-03-08 06:28:50","ordr":"0","featured":null,"brand":null,"product":null,"pending":null,"slug":"paul-davis-of-polk-county-lakeland","custom":null},
{"id":"268","title":"Flooring Outlet Center","description":"","street":"5310 South Florida Avenue","city":"Lakeland","state":"FL","postal_code":"33813","country":"223","lat":"27.9688416","lng":"-81.9632408","phone":"+1 863-644-9935","fax":"","email":"","website":"http:\/\/flooringoutletcenterinc.com\/","description_2":"","logo_id":"0","marker_id":"1","is_disabled":"0","open_hours":"{\"mon\":\"0\",\"tue\":\"0\",\"wed\":\"0\",\"thu\":\"0\",\"fri\":\"0\",\"sat\":\"0\",\"sun\":\"0\"}","created_on":"2024-03-08 06:29:00","updated_on":"2024-03-08 06:30:10","ordr":"0","featured":null,"brand":null,"product":null,"pending":null,"slug":"flooring-outlet-center-lakeland","custom":null},
{"id":"269","title":"Floors 4 Pro's","description":"","street":"2108 Whitfield Park Loop","city":"Sarasota","state":"FL","postal_code":"34243","country":"223","lat":"27.4208614","lng":"-82.53849459999999","phone":"+1 941-666-8640","fax":"","email":"","website":"https:\/\/www.floors4pros.com\/","description_2":"","logo_id":"0","marker_id":"1","is_disabled":"0","open_hours":"{\"mon\":\"0\",\"tue\":\"0\",\"wed\":\"0\",\"thu\":\"0\",\"fri\":\"0\",\"sat\":\"0\",\"sun\":\"0\"}","created_on":"2024-03-08 06:30:33","updated_on":"2024-03-08 06:31:44","ordr":"0","featured":null,"brand":null,"product":null,"pending":null,"slug":"floors-4-pro-s-sarasota","custom":null},
{"id":"270","title":"Prosource Wichita","description":"","street":"535 S Emerson St,","city":"Wichita","state":"KS","postal_code":"67209","country":"223","lat":"37.6753362","lng":"-97.4306148","phone":"(316) 223-7860","fax":"","email":"","website":"https:\/\/www.prosourcewholesale.com\/showrooms\/ks-prosource-of-wichita","description_2":"","logo_id":"0","marker_id":"1","is_disabled":"0","open_hours":"{\"mon\":\"0\",\"tue\":\"0\",\"wed\":\"0\",\"thu\":\"0\",\"fri\":\"0\",\"sat\":\"0\",\"sun\":\"0\"}","created_on":"2024-03-11 18:42:34","updated_on":"2024-03-11 18:46:15","ordr":"0","featured":null,"brand":null,"product":null,"pending":null,"slug":"prosource-wichita-wichita","custom":null},
{"id":"271","title":"Goodlife Home Renovations","description":"Stocking Dealer","street":"2541 W College Rd","city":"Springfield","state":"MO","postal_code":"65802","country":"223","lat":"37.2096057","lng":"-93.3273597","phone":"+14175015994","fax":"","email":"","website":"https:\/\/www.goodlifehomerenovations.com\/","description_2":"","logo_id":"0","marker_id":"1","is_disabled":"0","open_hours":"{\"mon\":\"0\",\"tue\":\"0\",\"wed\":\"0\",\"thu\":\"0\",\"fri\":\"0\",\"sat\":\"0\",\"sun\":\"0\"}","created_on":"2024-03-14 21:33:26","updated_on":"2024-03-18 19:39:59","ordr":"0","featured":null,"brand":null,"product":null,"pending":null,"slug":"goodlife-home-renovations-springfield","custom":null},
{"id":"272","title":"Maline Tile  - Massachusettes","description":"","street":"20 Reservoir Park Drive","city":"Rockland","state":"MA","postal_code":"02370","country":"223","lat":"42.1603627","lng":"-70.9046475","phone":"781.792.1780","fax":"","email":"SalesMA@maline.com","website":"https:\/\/malinetile.com\/","description_2":"","logo_id":"0","marker_id":"1","is_disabled":"0","open_hours":"{\"mon\":\"0\",\"tue\":\"0\",\"wed\":\"0\",\"thu\":\"0\",\"fri\":\"0\",\"sat\":\"0\",\"sun\":\"0\"}","created_on":"2024-03-19 20:18:56","updated_on":"2024-03-19 20:21:23","ordr":"0","featured":null,"brand":null,"product":null,"pending":null,"slug":"maline-tile-massachusettes-rockland","custom":null},
{"id":"273","title":"Maline Tile  - New Jersey","description":"","street":"2 Doig Road","city":"Wayne","state":"NJ","postal_code":"07470","country":"223","lat":"40.9342856","lng":"-74.271301","phone":"973.835.0244","fax":"","email":"SalesNJ@maline.com","website":"https:\/\/malinetile.com\/","description_2":"","logo_id":"0","marker_id":"1","is_disabled":"0","open_hours":"{\"mon\":\"0\",\"tue\":\"0\",\"wed\":\"0\",\"thu\":\"0\",\"fri\":\"0\",\"sat\":\"0\",\"sun\":\"0\"}","created_on":"2024-03-19 20:21:35","updated_on":"2024-03-19 20:22:42","ordr":"0","featured":null,"brand":null,"product":null,"pending":null,"slug":"maline-tile-new-jersey-wayne","custom":null},
{"id":"274","title":"Emco Kitchener","description":"","street":"500 Trillium Drive, Units 3-5","city":"Kitchener","state":"Ontario","postal_code":"N2R 1A7","country":"38","lat":"43.4017618","lng":"-80.46958819999999","phone":"519-894-7000","fax":"","email":"SalesNJ@maline.com","website":"https:\/\/emco.ca\/stores\/emco-kitchener\/","description_2":"","logo_id":"0","marker_id":"1","is_disabled":"0","open_hours":"{\"mon\":\"0\",\"tue\":\"0\",\"wed\":\"0\",\"thu\":\"0\",\"fri\":\"0\",\"sat\":\"0\",\"sun\":\"0\"}","created_on":"2024-03-28 21:02:12","updated_on":"2024-05-08 01:42:19","ordr":"0","featured":null,"brand":null,"product":null,"pending":null,"slug":"emco-kitchener-kitchener","custom":null},
{"id":"276","title":"The Tile House, Pickering, ON","description":"","street":"1095 Kingston Rd #3","city":"Pickering","state":"ON","postal_code":"L1V 1B5","country":"38","lat":"43.82687749999999","lng":"-79.09927359999999","phone":"(905) 839-1434","fax":"","email":"","website":"https:\/\/www.hydroblok.com\/find-a-dealer\/the-tile-house-pickering\/","description_2":"","logo_id":"0","marker_id":"1","is_disabled":"0","open_hours":"{\"mon\":\"0\",\"tue\":\"0\",\"wed\":\"0\",\"thu\":\"0\",\"fri\":\"0\",\"sat\":\"0\",\"sun\":\"0\"}","created_on":"2024-04-17 12:18:51","updated_on":"2024-04-17 20:18:44","ordr":"0","featured":null,"brand":null,"product":null,"pending":null,"slug":"the-tile-house-pickering-on-pickering","custom":null},
{"id":"277","title":"EMCO Peterborough","description":"","street":"774 Rye St, #11","city":"Peterborough","state":"ON","postal_code":"K9J 6W9","country":"38","lat":"44.2786042","lng":"-78.34459609999999","phone":"(705) 742-4251","fax":"","email":"","website":"https:\/\/emco.ca\/stores\/emco-peterborough\/","description_2":"","logo_id":"0","marker_id":"1","is_disabled":"0","open_hours":"{\"mon\":\"0\",\"tue\":\"0\",\"wed\":\"0\",\"thu\":\"0\",\"fri\":\"0\",\"sat\":\"0\",\"sun\":\"0\"}","created_on":"2024-05-07 18:50:20","updated_on":"2024-05-07 18:53:41","ordr":"0","featured":null,"brand":null,"product":null,"pending":null,"slug":"emco-peterborough-peterborough","custom":null},
{"id":"278","title":"The Ensuite Winnipeg","description":"","street":"1199 St James St","city":"Winnipeg","state":"MB","postal_code":"R3K 0K8","country":"38","lat":"49.90086489999999","lng":"-97.1994034","phone":"(204)925-8466","fax":"","email":"customerservice@theensuite.ca","website":"http:\/\/www.theensuitewinnipeg.ca","description_2":"","logo_id":"0","marker_id":"1","is_disabled":"0","open_hours":"{\"mon\":\"0\",\"tue\":\"0\",\"wed\":\"0\",\"thu\":\"0\",\"fri\":\"0\",\"sat\":\"0\",\"sun\":\"0\"}","created_on":"2024-05-08 01:24:58","updated_on":"2024-05-08 01:26:38","ordr":"0","featured":null,"brand":null,"product":null,"pending":null,"slug":"the-ensuite-winnipeg-winnipeg","custom":null},
{"id":"279","title":" EMCO Western Supplies","description":"","street":"1199 St James St","city":"Winnipeg","state":"MB","postal_code":"R3K 0K8","country":"38","lat":"49.90086489999999","lng":"-97.1994034","phone":"(204)925-8711","fax":"","email":"605cust@emcoltd.com","website":"http:\/\/www.theensuitewinnipeg.ca","description_2":"","logo_id":"0","marker_id":"1","is_disabled":"0","open_hours":"{\"mon\":\"0\",\"tue\":\"0\",\"wed\":\"0\",\"thu\":\"0\",\"fri\":\"0\",\"sat\":\"0\",\"sun\":\"0\"}","created_on":"2024-05-08 01:48:44","updated_on":"2024-05-08 01:52:34","ordr":"0","featured":null,"brand":null,"product":null,"pending":null,"slug":"emco-western-supplies-winnipeg","custom":null},
{"id":"280","title":"Remarkable Concept","description":"Stocking Dealer","street":"1550 NE Riddell Rd, STE 10","city":"Bremerton","state":"WA","postal_code":"98310","country":"223","lat":"47.6074527","lng":"-122.6309858","phone":"(204)925-8711","fax":"","email":"inforemarkableconcept@gmail.com","website":"https:\/\/www.remarkable-concept.com\/","description_2":"","logo_id":"0","marker_id":"1","is_disabled":"0","open_hours":"{\"mon\":\"0\",\"tue\":\"0\",\"wed\":\"0\",\"thu\":\"0\",\"fri\":\"0\",\"sat\":\"0\",\"sun\":\"0\"}","created_on":"2024-05-14 01:17:28","updated_on":"2024-05-14 01:18:52","ordr":"0","featured":null,"brand":null,"product":null,"pending":null,"slug":"remarkable-concept-bremerton","custom":null},
{"id":"281","title":"Idaho Floors","description":"Stocking Dealer","street":"1905 19th Avenue","city":"Lewiston","state":"Idaho","postal_code":"83501","country":"223","lat":"46.4012792","lng":"-117.0041447","phone":"(208) 743-0327","fax":"","email":"info@idahofloors.net","website":"https:\/\/idahofloors.net\/","description_2":"","logo_id":"0","marker_id":"1","is_disabled":"0","open_hours":"{\"mon\":\"0\",\"tue\":\"0\",\"wed\":\"0\",\"thu\":\"0\",\"fri\":\"0\",\"sat\":\"0\",\"sun\":\"0\"}","created_on":"2024-05-14 01:19:04","updated_on":"2024-05-14 01:20:35","ordr":"0","featured":null,"brand":null,"product":null,"pending":null,"slug":"idaho-floors-lewiston","custom":null},
{"id":"282","title":"Accent Flooring","description":"Contact - Ben Martin","street":"4614 N HGWY 763","city":"Columbia","state":"MO","postal_code":"65202","country":"223","lat":"38.9985119","lng":"-92.32299259999999","phone":"573-874-2832","fax":"","email":"","website":"https:\/\/accentfc.com\/","description_2":"","logo_id":"0","marker_id":"1","is_disabled":"0","open_hours":"{\"mon\":\"0\",\"tue\":\"0\",\"wed\":\"0\",\"thu\":\"0\",\"fri\":\"0\",\"sat\":\"0\",\"sun\":\"0\"}","created_on":"2024-05-31 07:14:25","updated_on":"2024-05-31 07:16:36","ordr":"0","featured":null,"brand":null,"product":null,"pending":null,"slug":"accent-flooring-columbia","custom":null}
]
}
]
